0,사업장명,인허가일자,소재지도로명주소,소재지지번주소,소재지우편번호,위도,경도,인허가취소일자,영업상태명,폐업일자,소재지시설전화번호,소재지면적정보,업태구분명정보,X좌표값,Y좌표값,의료기관종별명,의료인수,입원실수,병상수,총면적,진료과목내용,진료과목내용정보,특수구급차대수,일반구급차대수,허가병상수
가평군,가평산속요양병원,20121008,경기도 가평군 상면 대보간선로 889,경기도 가평군 상면 항사리 2번지,12445,37.78834866,127.4045019,,영업중,,031-584-8900,,요양병원(일반요양병원),235567.3936,476288.2414,요양병원(일반요양병원),9,44,83,2250,101 301,"내과, 한방내과",0,0,0
가평군,가평푸른숲요양병원,20170901,경기도 가평군 상면 물골길 262-23,경기도 가평군 상면 봉수리 49-4번지,12440,37.84133707,127.3033497,,영업중,,1661-9099,,요양병원(일반요양병원),226637.7724,482136.6363,요양병원(일반요양병원),19,77,146,6883,308 301 122 101,"내과, 가정의학과, 한방내과, 침구과",0,0,0
가평군,강산여성요양병원,20200306,경기도 가평군 가평읍 북한강변로 160,경기도 가평군 가평읍 금대리 585번지,12428,37.74707797,127.5258306,,영업중,,031-582-8858,,요양병원(일반요양병원),246280.626,471760.1354,요양병원(일반요양병원),7,16,39,2992.56,110 109 101,"내과, 마취통증의학과, 산부인과",0,0,0
가평군,노체리안드리자애병원,19951218,경기도 가평군 조종면 꽃동네길 46 (노체리안드리자애병원),경기도 가평군 조종면 하판리 540번지 2호,12432,37.8848309,127.3503711,,영업중,,031-589-0301,,병원,230939.0742,487282.1845,병원,13,12,62,6511.34,101 103 116 104,"외과, 영상의학과, 정신건강의학과, 내과",0,0,0
가평군,에이치제이매그놀리아국제병원,20030517,경기도 가평군 설악면 미사리로 267-177,경기도 가평군 설악면 송산리 460번지,12461,37.69088732,127.5213882,,영업중,,031-589-4300,,병원,245936.6835,465597.7759,병원,67,45,117,22922,110 103 116 109 101 104 102 120 122 113 108 105,"정형외과, 성형외과, 이비인후과, 가정의학과, 재활의학과, 신경과, 외과, 내과, 마취통증의학과, 영상의학과, 정신건강의학과, 산부인과",0,0,0
가평군,에이치제이매그놀리아국제한방병원,20030518,경기도 가평군 설악면 미사리로 267-177,경기도 가평군 설악면 송산리 460번지,12461,37.69088732,127.5213882,,영업중,,031-589-4300,,한방병원,245936.6835,465597.7759,한방병원,1,12,30,1007,301 308 306 302,"한방부인과, 한방재활의학과, 침구과, 한방내과",0,0,0
가평군,청평우리병원,20050215,경기도 가평군 청평면 경춘로 791-11,경기도 가평군 청평면 441번지 43호,12451,37.7371643,127.4153657,,영업중,,031-585-5115,,병원,236548.3691,470609.1265,병원,18,35,198,2738,103 122 116 102 101 111 114 109,"마취통증의학과, 피부과, 소아청소년과, 내과, 신경과, 영상의학과, 가정의학과, 정신건강의학과",0,0,0
가평군,해암요양병원,20170814,경기도 가평군 청평면 북한강로1604번길 64-28,경기도 가평군 청평면 삼회리 502번지,12458,37.66361413,127.3875654,,영업중,,031-584-0545,,요양병원(일반요양병원),234131.9864,462435.4811,요양병원(일반요양병원),13,43,97,2997.94,308 307 306 305 304 303 302 301 125 122 120 116 115 114 113 111 109 107 106 105 104 102 101,"내과, 신경과, 외과, 정형외과, 신경외과, 흉부외과, 마취통증의학과, 소아청소년과, 이비인후과, 피부과, 비뇨의학과, 영상의학과, 재활의학과, 가정의학과, 응급의학과, 한방내과, 한방부인과, 한방소아과, 한방안·이비인후·피부과, 한방신경정신과, 한방재활의학과, 사상체질과, 침구과",0,0,0
고양시,강북성심요양병원,20080422,경기도 고양시 덕양구 중앙로557번길 7-14 (행신동),"경기도 고양시 덕양구 행신동 996번지 2호 1,2,3,7층",10518,37.62260569,126.8353732,,영업중,,031 978 1122,,요양병원(일반요양병원),185401.82,457828.5233,요양병원(일반요양병원),30,29,235,3034.52,101 102 122 110 111 113 114 120 115,"비뇨의학과, 재활의학과, 피부과, 이비인후과, 소아청소년과, 산부인과, 가정의학과, 신경과, 내과",0,0,0
고양시,건누리병원,20100609,"경기도 고양시 일산서구 강성로 275, 스타타워빌딩 2층~8층 (대화동)",경기도 고양시 일산서구 대화동 2206번지 스타타워빌딩,10381,37.6772491,126.746723,,영업중,,031-915-1000,,병원,177584.4064,463908.6118,병원,16,22,90,2357.7,122 120 118 116 114 109 106 105 104 101,"내과, 외과, 정형외과, 신경외과, 마취통증의학과, 피부과, 영상의학과, 병리과, 재활의학과, 가정의학과",0,0,0
고양시,고양센트럴요양병원,20191111,경기도 고양시 덕양구 중앙로 620 (화정동),경기도 고양시 덕양구 화정동 1148번지 4호,10503,37.62718675,126.8299332,,영업중,,031-973-7775,,요양병원(일반요양병원),184918.5816,458331.2708,요양병원(일반요양병원),10,37,198,4868.13,308 307 306 305 304 303 302 301 125 122 120 114 107 106 105 104 102 101,"내과, 신경과, 외과, 정형외과, 신경외과, 흉부외과, 피부과, 재활의학과, 가정의학과, 응급의학과, 한방내과, 한방부인과, 한방소아과, 한방안·이비인후·피부과, 한방신경정신과, 한방재활의학과, 사상체질과, 침구과",0,0,0
고양시,고양정신병원,19990304,경기도 고양시 덕양구 통일로1102번길 46 (내유동),"경기도 고양시 덕양구 내유동 294번지 2호 294-2,3,4,5",10264,37.71149891,126.8545656,,영업중,,031 969 0885,,병원,187099.499,467673.9629,병원,25,32,299,4931,103 122 101,"내과, 가정의학과, 정신건강의학과",0,0,0
고양시,고양휴메디병원,20200413,"경기도 고양시 덕양구 원흥3로 6-17, 3층~7층 (원흥동)",경기도 고양시 덕양구 원흥동 633번지 7호,10564,37.64773699,126.8759301,,영업중,,031-968-2020,,병원,188978.9294,460603.5645,병원,8,54,199,3440.45,122 103 102 101,"내과, 신경과, 정신건강의학과, 가정의학과",0,0,0
고양시,국군고양병원,19940607,경기도 고양시 덕양구 혜음로 215 (벽제동),경기도 고양시 덕양구 벽제동 335번지 1호,10271,37.71937235,126.8980909,,영업중,,031-963-6657,,병원,190848.7332,468501.1811,병원,64,29,150,11191.95,404 403 402 308 125 120 119 116 114 113 112 110 108 106 105 104 103 101,"내과, 정신건강의학과, 외과, 정형외과, 신경외과, 성형외과, 산부인과, 안과, 이비인후과, 피부과, 영상의학과, 진단검사의학과, 재활의학과, 응급의학과, 침구과, 구강악안면외과, 치과보철과, 치과교정과",0,0,0
고양시,국립암센터,20000908,경기도 고양시 일산동구 일산로 323 (마두동),경기도 고양시 일산동구 마두1동 809번지,10408,37.66323673,126.7833956,,영업중,,031-920-0114,,종합병원,180831.5536,462376.3335,종합병원,985,209,560,109537,402 123 122 120 119 118 117 116 115 114 113 112 111 110 109 107 106 105 104 103 102 101,"내과, 신경과, 정신건강의학과, 외과, 정형외과, 신경외과, 흉부외과, 마취통증의학과, 산부인과, 소아청소년과, 안과, 이비인후과, 피부과, 비뇨의학과, 영상의학과, 방사선종양학과, 병리과, 진단검사의학과, 재활의학과, 가정의학과, 핵의학과, 구강악안면외과",0,0,0
고양시,국민건강보험공단일산병원,20000118,"경기도 고양시 일산동구 일산로 100 (백석동,백석1동 1241외1필지 4층)",경기도 고양시 일산동구 백석1동 1232번지 백석1동 1241외1필지 4층,10444,37.64547527,126.7929632,,영업중,,1577-0013,,종합병원,181645.3326,460377.7623,종합병원,1037,239,824,115155.25,406 125 123 122 120 119 118 117 116 115 114 113 112 111 110 109 108 107 106 105 104 103 102 101,"내과, 신경과, 정신건강의학과, 외과, 정형외과, 신경외과, 흉부외과, 성형외과, 마취통증의학과, 산부인과, 소아청소년과, 안과, 이비인후과, 피부과, 비뇨의학과, 영상의학과, 방사선종양학과, 병리과, 진단검사의학과, 재활의학과, 가정의학과, 핵의학과, 응급의학과, 치주과",0,0,0
고양시,그레이스병원,19990107,"경기도 고양시 일산동구 중앙로 1073, (지하2층,지하1층,1층중일부,2~9층)/중앙로1071(1층중 일부, 2~4층) (백석동)",경기도 고양시 일산동구 백석동 1334번지,10447,37.64476085,126.785092,,영업중,,031-901-4000,,병원,180964.8073,460286.9509,병원,49,32,60,4721.17,116 111 110 101,"내과, 산부인과, 소아청소년과, 영상의학과",0,0,0
고양시,늘푸른병원,20040219,경기도 고양시 덕양구 원당로 139 (주교동),"경기도 고양시 덕양구 주교동 554번지 3호 (지하1층,1~5층)",10298,37.6635433,126.8400413,,영업중,,031 967 9966,,병원,185821.1051,462373.7294,병원,8,16,120,1736.74,101 102 103,"정신건강의학과, 신경과, 내과",0,0,0
고양시,다스람요양병원,20150629,"경기도 고양시 일산동구 성현로29번길 28-9, 지항1층,1~4층 (성석동)","경기도 고양시 일산동구 성석동 1227번지 10호 지항1층,1~4층",10250,37.71179437,126.791737,,영업중,,1800-5173,,요양병원(일반요양병원),181520.6034,467741.8072,요양병원(일반요양병원),21,48,91,3859.74,101 122 104 120 308 301,"한방내과, 침구과, 재활의학과, 외과, 가정의학과, 내과",0,0,0
고양시,동국대학교일산불교병원,20050531,"경기도 고양시 일산동구 동국로 27 (식사동, 동국대학교일산병원)",경기도 고양시 일산동구 식사동 814번지 동국대학교일산병원,10326,37.67643852,126.8055631,,영업중,,031-1577-7000,,종합병원,182925,463830,종합병원,886,188,668,81344,101 102 103 104 105 106 107 108 109 110 111 112 113 114 115 116 117 118 119 120 122 123 125 402,"구강악안면외과, 응급의학과, 핵의학과, 가정의학과, 재활의학과, 진단검사의학과, 병리과, 방사선종양학과, 영상의학과, 비뇨의학과, 피부과, 이비인후과, 안과, 소아청소년과, 산부인과, 마취통증의학과, 성형외과, 흉부외과, 신경외과, 정형외과, 외과, 정신건강의학과, 신경과, 내과",0,0,0
고양시,동국대학교일산불교한방병원,20050711,"경기도 고양시 일산동구 동국로 27 (식사동, 동국대학교일산병원)",경기도 고양시 일산동구 식사동 814외9필지,10326,37.67643852,126.8055631,,영업중,,031-961-7000,,한방병원,182925,463830,한방병원,53,22,71,4988,301 302 303 304 305 306 307 308,"침구과, 사상체질과, 한방재활의학과, 한방신경정신과, 한방안·이비인후·피부과, 한방소아과, 한방부인과, 한방내과",0,0,0
고양시,동국마음요양병원,20160905,"경기도 고양시 일산동구 숲속마을로 18, 웰빙타운 5~8층,4층 403호 (풍동)",경기도 고양시 일산동구 풍동 1278번지 3호 웰빙타운,10305,37.66726568,126.8014306,,영업중,,031-811-9900,,요양병원(일반요양병원),182399.731,462783.5927,요양병원(일반요양병원),22,30,171,3477.42,306 122 120 104 101,"내과, 외과, 재활의학과, 가정의학과, 한방재활의학과",0,0,0
고양시,동원요양병원,20190808,"경기도 고양시 일산동구 일산로 439, 지하1~2층 지상2~5층호 (정발산동)",경기도 고양시 일산동구 정발산동 1204번지 1호 동원산부인과,10359,37.67295618,126.7780066,,영업중,,031-850-7000,,요양병원(일반요양병원),180337.9314,463424.3912,요양병원(일반요양병원),11,37,74,3184.44,301 122 116 110 101,"내과, 산부인과, 영상의학과, 가정의학과, 한방내과",0,0,0
고양시,든든한병원,20150714,"경기도 고양시 일산서구 하이파크2로 60 (덕이동, 든든한빌딩 3~11층)",경기도 고양시 일산서구 덕이동 1551번지 든든한빌딩3~11층,10234,37.69907416,126.7558945,,영업중,,031-930-6800,,병원,178407,466341,병원,29,30,138,3725.4,122 116 109 106 105 101,"내과, 정형외과, 신경외과, 마취통증의학과, 영상의학과, 가정의학과",0,0,0
고양시,라엘마음병원,20111007,"경기도 고양시 덕양구 중앙로 628, 예일프라자 7층 6층(607,608)호 (화정동)","경기도 고양시 덕양구 화정동 1148번지 1호 예일프라자 6층(607호,608호),7층",10503,37.62744352,126.8288714,,영업중,,031-978-5454,,병원,184828.9247,458367.0876,병원,12,24,176,1476.43,103 102 101,"내과, 신경과, 정신건강의학과",0,0,0
고양시,로하스일산요양병원,20090429,"경기도 고양시 일산서구 일중로 59 (일산동, 일산마샬빌딩 4,5,6,7,8층)","경기도 고양시 일산서구 일산2동 554번지 4호 일산마샬빌딩 4,5,6,7,8층",10341,37.68498957,126.7751907,,영업중,,031-976-2200,,요양병원(일반요양병원),180106.6484,464751.7779,요양병원(일반요양병원),17,27,143,2590,308 307 120 107 102 101,"내과, 신경과, 흉부외과, 재활의학과, 사상체질과, 침구과",0,0,0
고양시,로하스클로버요양병원,20070713,경기도 고양시 덕양구  호국로  804 (성사동),경기도 고양시 덕양구 성사동 510번지 5호,10463,37.65737886,126.8374846,,영업중,,031-967-5050,,요양병원(일반요양병원),185598.1198,461675.6063,요양병원(일반요양병원),21,26,179,3330.4,101 104 113 116 122 301 306 105 114 120 126 103 115 308,"침구과, 비뇨의학과, 정신건강의학과, 예방의학과, 재활의학과, 피부과, 정형외과, 한방재활의학과, 한방내과, 가정의학과, 영상의학과, 이비인후과, 외과, 내과",0,0,0
고양시,리빙웰치과병원,20030306,"경기도 고양시 일산서구 중앙로 1449 (주엽동, 효원빌딩 401호, 601~602호)","경기도 고양시 일산서구 주엽동 110 효원빌딩 401호, 601~602호",10387,37.67064008,126.7591607,,영업중,,031 916 8020,,치과병원,,,치과병원,5,4,7,823.67,409 408 407 406 405 404 403 402,"구강악안면외과, 치과보철과, 치과교정과, 소아치과, 치주과, 치과보존과, 구강내과, 영상치의학과",0,0,0
고양시,린치과병원,20010627,"경기도 고양시 덕양구 화중로 76, 201호 (화정동, 대감빌딩)",경기도 고양시 덕양구 화정동 970-1번지 대감빌딩 201호,10500,37.63399652,126.8308727,,영업중,,031-974-2828,,치과병원,,,치과병원,5,0,0,525.89,407 405 404 403 402,"구강악안면외과, 치과보철과, 치과교정과, 소아치과, 치과보존과",0,0,0
고양시,메디누리요양병원,20171113,"경기도 고양시 일산서구 일현로 53, 1,4,5-8층 (탄현동)",경기도 고양시 일산서구 탄현동 1563번지 1호 메디누리,10343,37.69196337,126.7630178,,영업중,,031-925-7575,,요양병원(일반요양병원),179034.1271,465539.5117,요양병원(일반요양병원),8,26,120,1979.9,308 306 305 304 302 301 122 120 115 114 106 105 104 101,"내과, 외과, 정형외과, 신경외과, 피부과, 비뇨의학과, 재활의학과, 가정의학과, 한방내과, 한방부인과, 한방안·이비인후·피부과, 한방신경정신과, 한방재활의학과, 침구과",0,0,0
고양시,무지개요양병원,20090331,"경기도 고양시 일산서구 덕이로 212 (덕이동, 백송프라자 3,4층 일부)","경기도 고양시 일산서구 덕이동 1047-1번지 백송프라자 3,4층 일부",10228,37.69668831,126.7393575,,영업중,,031-916-1122,,요양병원(일반요양병원),176934,466062,요양병원(일반요양병원),35,46,285,4243.51,301 122,"가정의학과, 한방내과",0,0,0
고양시,미소아침요양병원,20130702,경기도 고양시 일산동구 중산로157번길 49 (중산동),경기도 고양시 일산동구 중산동 1666번지 4호,10338,37.68407665,126.7791803,,영업중,,031-819-7570,,요양병원(일반요양병원),180456.3805,464648.3111,요양병원(일반요양병원),25,24,143,2264.13,307 122 120,"재활의학과, 가정의학과, 사상체질과",0,0,0
고양시,사과나무치과병원,20070124,"경기도 고양시 일산서구 중앙로 1450, 사과나무치과병원 (주엽동)",경기도 고양시 일산서구 주엽동 21번지 사과나무치과병원,10387,37.67125572,126.7595968,,영업중,,031 913 9000,,치과병원,177611.725,463758.03,치과병원,21,0,0,2797.7,411 410 409 408 407 406 405 404 403 402 122 101,"내과, 가정의학과, 구강악안면외과, 치과보철과, 치과교정과, 소아치과, 치주과, 치과보존과, 구강내과, 영상치의학과, 구강병리과, 예방치과",0,0,0
고양시,새찬요양병원,20090129,경기도 고양시 덕양구 토당로67번길 2 (토당동),"경기도 고양시 덕양구 토당동 330번지 8호 지하1,2층, 지상1,2,5층",10509,37.62157797,126.8184819,,영업중,,031-979-2119,,요양병원(일반요양병원),183904.4116,457711.4593,요양병원(일반요양병원),37,39,199,4587.38,101 120 301 106,"신경외과, 한방내과, 재활의학과, 내과",0,0,0
고양시,서울메이치과병원,20040810,"경기도 고양시 덕양구 화신로260번길 66, 7층 (화정동, 한빛하이죤)",경기도 고양시 덕양구 화정동 975번지 한빛하이죤 7층,10500,37.63363045,126.8331733,,영업중,,031-973-6004,,치과병원,185212,459057,치과병원,2,0,0,306.93,401 407,"치과보존과, 치과",0,0,0
고양시,서울척탑병원,20200518,"경기도 고양시 덕양구 권율대로 685, SIB타워 6층,7층 ,803~808호 (원흥동)","경기도 고양시 덕양구 원흥동 638번지 SIB타워 6층,7층.8층일부(803~808호)",10560,37.6512063,126.874076,,영업중,,031-813-9988,,병원,188816.1047,460987.2644,병원,14,20,72,2400.63,120 119 116 111 109 106 105 104 102 101,"내과, 신경과, 외과, 정형외과, 신경외과, 마취통증의학과, 소아청소년과, 영상의학과, 진단검사의학과, 재활의학과",0,0,0
고양시,연세마두병원,20130527,"경기도 고양시 일산동구 강석로 123 (마두동, 뉴삼창마트)","경기도 고양시 일산동구 마두동 802번지 뉴삼창마트 3층,6층,7층",10414,37.65190605,126.7787886,,영업중,,902-5000,,병원,180411.0909,461078.73,병원,19,19,121,2257.47,120 113 111 102 101,"내과, 신경과, 소아청소년과, 이비인후과, 재활의학과",0,0,0
고양시,연세서울병원,20091202,"경기도 고양시 일산동구 중앙로 1200 (마두동,5,6,7층)","경기도 고양시 일산동구 마두2동 798번지 1호 5,6,7층",10414,37.65379815,126.7772058,,영업중,,319079920,,병원,180263.7976,461302.0735,병원,20,29,259,2452.5,101 103 122,"가정의학과, 정신건강의학과, 내과",0,0,0
고양시,연세플라워치과병원,20091104,"경기도 고양시 일산동구 정발산로42번길 5 (장항동, 대한생명 일산사옥 12층)",경기도 고양시 일산동구 마두1동 848번지 대한생명 일산사옥 12층,10403,37.65696494,126.774123,,영업중,,031-917-4009,,치과병원,181436.8379,462478.4316,치과병원,4,0,0,390.62,407 404 403 401,"치과, 치과보철과, 치과교정과, 치과보존과",0,0,0
고양시,연세항맥병원,20141017,"경기도 고양시 일산서구 강성로 121 (주엽동, 삼희프라자301~6호,309~11호,401~2,409-1호,410~11호)","경기도 고양시 일산서구 주엽동 66번지 일산삼희프라자301~6호,309~11호,401~2호,409-1호,410~11호",10386,37.6702938,126.7623281,,영업중,,031-925-0667,,병원,178947.0142,463157.0537,병원,6,17,46,1420.21,104 101,"내과, 외과",0,0,0
고양시,우노힐일산요양병원,20190920,"경기도 고양시 일산동구 고봉로 467-56, 가동 1~3층 (성석동)",경기도 고양시 일산동구 성석동 1306번지 9호 중산힐스청소년수련원,10246,37.70084842,126.7775147,,영업중,,031-975-1275,,요양병원(일반요양병원),180315.9388,466522.3899,요양병원(일반요양병원),13,48,84,3207,301 120 106 105 104 101,"내과, 외과, 정형외과, 신경외과, 재활의학과, 한방내과",0,0,0
고양시,원당연세병원,19991201,경기도 고양시 덕양구 고양대로 1359 (성사동),경기도 고양시 덕양구 성사동 699번지 9호,10464,37.65504956,126.8353117,,영업중,,3115666256,,병원,185402.0644,461429.0186,병원,10,15,43,1529.3,101 105 122 114 115 116 106 109 104,"외과, 마취통증의학과, 신경외과, 영상의학과, 비뇨의학과, 피부과, 가정의학과, 정형외과, 내과",0,0,0
고양시,원흥아이제일병원,20200518,"경기도 고양시 덕양구 권율대로 685, SIB타워 9,10층 (원흥동)","경기도 고양시 덕양구 원흥동 638번지 9층 10층, SIB타워",10560,37.6512063,126.874076,,영업중,,031-926-7000,,병원,188816.1047,460987.2644,병원,13,36,63,1784.1,122 119 118 116 114 113 111 101,"내과, 소아청소년과, 이비인후과, 피부과, 영상의학과, 병리과, 진단검사의학과, 가정의학과",0,0,0
고양시,의료법인 세경의료재단 새빛안과병원,20051019,경기도 고양시 일산동구 중앙로 1065 (백석동),경기도 고양시 일산동구 백석2동 1334-3,10447,37.64426005,126.7857429,,영업중,,031-900-7700,,병원,181020.8765,460231.2021,병원,48,14,50,4090.99,112 109 101,"내과, 마취통증의학과, 안과",0,0,0
고양시,의료법인두영의료재단 정안요양병원,20121226,경기도 고양시 일산동구 성현로377번길 128-4 (문봉동),"경기도 고양시 일산동구 문봉동 21번지 27호 지하1층일부,1~4층",10258,37.70040117,126.8332366,,영업중,,977-8757,,요양병원(일반요양병원),185227.4746,466463.8662,요양병원(일반요양병원),25,24,145,1828.16,101 122 104 102 105 301 308 307,"사상체질과, 침구과, 한방내과, 정형외과, 신경과, 외과, 가정의학과, 내과",0,0,0
고양시,의료법인명지의료재단명지병원,19830328,경기도 고양시 덕양구 화수로14번길 55 (화정동),경기도 고양시 덕양구 화정1동 697번지 24호,10475,37.64246537,126.8317116,,영업중,,031 810 5114,,종합병원,185021.7799,459990.4587,종합병원,910,144,559,74136.39,101 111 102 103 104 107 105 106 110 112 115 109 116 119 118 122 401 114 113 120 125 123 108 124 117,"방사선종양학과, 직업환경의학과, 성형외과, 핵의학과, 응급의학과, 재활의학과, 이비인후과, 피부과, 치과, 가정의학과, 병리과, 진단검사의학과, 영상의학과, 마취통증의학과, 비뇨의학과, 안과, 산부인과, 신경외과, 정형외과, 흉부외과, 외과, 정신건강의학과, 신경과, 소아청소년과, 내과",0,0,0
고양시,의료법인사과나무의료재단 중산사과나무치과병원,20120723,"경기도 고양시 일산동구 고양대로 762, 309호 (중산동)",경기도 고양시 일산동구  1688번지,10355,37.68179023,126.7807692,,영업중,,319770123,,치과병원,180597.5876,464407.4669,치과병원,3,0,0,364.89,411 407 406 405 404 403 401,"치과, 치과보철과, 치과교정과, 소아치과, 치주과, 치과보존과, 예방치과",0,0,0
고양시,의료법인상록의료재단화정병원,20091106,"경기도 고양시 덕양구 서정마을로 5, 301,4,5,6층 (행신동, 행신프라자)","경기도 고양시 덕양구 행신동 1078번지 행신프라자 301,4,5,6층",10486,37.61835992,126.8469246,,영업중,,031-979-7572,,병원,186421.5573,457356.0956,병원,16,22,180,1921.17,103,정신건강의학과,0,0,0
고양시,의료법인성광의료재단일산차병원,20191226,경기도 고양시 일산동구 중앙로 1205 (장항동),경기도 고양시 일산동구 장항동 889번지,10414,37.65412266,126.7757403,,영업중,,031-782-8300,,종합병원,180159.8135,461339.1127,종합병원,248,85,204,26079.44,123 120 119 118 117 116 115 111 110 109 104 103 101,"내과, 정신건강의학과, 외과, 마취통증의학과, 산부인과, 소아청소년과, 비뇨의학과, 영상의학과, 방사선종양학과, 병리과, 진단검사의학과, 재활의학과, 핵의학과",0,0,0
고양시,의료법인에덴재단행복한요양병원,20071224,경기도 고양시 덕양구 내유길 146-19 (내유동),"경기도 고양시 덕양구 내유동 120번지 지하1층,2층,3층,4층 일부",10264,37.72303815,126.8645587,,영업중,,031 963 5600,,요양병원(일반요양병원),187995.0598,468970.9888,요양병원(일반요양병원),17,28,133,2498.44,101 102 120 301 308 306,"한방재활의학과, 침구과, 한방내과, 재활의학과, 신경과, 내과",0,0,0
고양시,의료법인일산복음병원,19890904,"경기도 고양시 일산동구 고양대로 760, 가동 (중산동, 일산복음병원)",경기도 고양시 일산동구 중산동 186번지 2호 가동,10355,37.682069,126.7804849,,영업중,,031-977-5000,,병원,180527.147,464407.8421,병원,101,32,144,5969.53,122 116 109 106 105 104 102 101,"내과, 신경과, 외과, 정형외과, 신경외과, 마취통증의학과, 영상의학과, 가정의학과",0,0,0
고양시,의료법인자인의료재단자인메디병원,20020116,"경기도 고양시 덕양구 중앙로 555, 지하1,1-10층 (행신동)","경기도 고양시 덕양구 행신동 995번지 지하1,1-10층",10518,37.62298299,126.8356822,,영업중,,031-930-3114,,병원,185400,457901,병원,61,30,114,5522.55,306 301 122 120 116 109 106 105 101,"내과, 정형외과, 신경외과, 마취통증의학과, 영상의학과, 재활의학과, 가정의학과, 한방내과, 한방재활의학과",0,0,0
고양시,의료법인한영의료재단삼성요양병원,20060518,경기도 고양시 덕양구 지도로 100 (토당동),"경기도 고양시 덕양구 토당동 845번지 파워프라자 (115,205,206,303,304,306,501호)",10511,37.62608975,126.8240729,,영업중,,031 972 5678,,요양병원(일반요양병원),184404.7799,458209.1995,요양병원(일반요양병원),23,20,136,1480.62,101 102 113 114 115 120 301 302 308,"침구과, 한방부인과, 한방내과, 재활의학과, 비뇨의학과, 피부과, 이비인후과, 신경과, 내과",0,0,0
고양시,이푸른요양병원,20160415,"경기도 고양시 일산동구 중앙로 1124, 4층 (백석동, 흰돌마을1단지아파트 상가동)","경기도 고양시 일산동구 백석동 1194번지 흰돌마을1단지아파트 상가동, 4층",10421,37.64788093,126.7823999,,영업중,,031-932-3338,,요양병원(일반요양병원),180731.1482,460645.0885,요양병원(일반요양병원),20,25,157,2087.42,308 122 120 106 105 104 102 101,"내과, 신경과, 외과, 정형외과, 신경외과, 재활의학과, 가정의학과, 침구과",0,0,0
고양시,인제대학교일산백병원,19991206,경기도 고양시 일산서구 주화로 170 (대화동),경기도 고양시 일산서구 대화동 2240번지,10380,37.67427101,126.7503818,,영업중,,031-910-7114,,종합병원,177925.65,463563.5603,종합병원,1080,143,647,73621.95,404 403 402 125 122 120 119 118 117 116 115 114 113 112 111 110 109 108 107 106 105 104 103 102 101,"내과, 신경과, 정신건강의학과, 외과, 정형외과, 신경외과, 흉부외과, 성형외과, 마취통증의학과, 산부인과, 소아청소년과, 안과, 이비인후과, 피부과, 비뇨의학과, 영상의학과, 방사선종양학과, 병리과, 진단검사의학과, 재활의학과, 가정의학과, 응급의학과, 구강악안면외과, 치과보철과, 치과교정과",0,0,0
고양시,일산리더스요양병원,20141030,"경기도 고양시 일산동구 위시티로 18, 5~8층 (식사동, 동국타워)",경기도 고양시 일산동구 식사동 1588번지 동국타워 5~8층,10324,37.67455725,126.8075197,,영업중,,031-962-0050,,요양병원(일반요양병원),183019.1343,463895.9519,요양병원(일반요양병원),15,24,129,2386,101 122 301 308,"침구과, 한방내과, 가정의학과, 내과",0,0,0
고양시,일산메디안요양병원,20120307,"경기도 고양시 일산서구 중앙로 1564, 그린월드 507호,6층,706호,707호,8층,9층,10층호 (대화동)",경기도 고양시 일산서구 대화동 2203번지 1호 그린월드,10381,37.67621347,126.7482757,,영업중,,913-3119,,요양병원(일반요양병원),177714.7769,463793.081,요양병원(일반요양병원),38,59,294,4962.42,301 122 120 115 114 113 111 106 105 104 102 101,"내과, 신경과, 외과, 정형외과, 신경외과, 소아청소년과, 이비인후과, 피부과, 비뇨의학과, 재활의학과, 가정의학과, 한방내과",0,0,0
고양시,일산복음요양병원,20151120,"경기도 고양시 일산동구 고양대로 760, 나동 6~10층 (중산동, 일산복음병원)",경기도 고양시 일산동구 중산동 186-2번지 일산복음병원 나동 6~10층,10355,37.68187512,126.780279,,영업중,,031-977-6633,,요양병원(일반요양병원),,,요양병원(일반요양병원),49,50,221,6270.43,308 122 120 102,"신경과, 재활의학과, 가정의학과, 침구과",0,0,0
고양시,일산사랑요양병원,20080117,"경기도 고양시 일산동구 장백로 86, 한경빌딩 3~6층 (백석동)",경기도 고양시 일산동구 백석동 1335번지 2호 한경빌딩,10447,37.64474799,126.7844574,,영업중,,031-901-8119,,요양병원(일반요양병원),180908.3625,460286.3469,요양병원(일반요양병원),20,34,174,2520.4,301 120 113 111 106 105 104 101,"내과, 외과, 정형외과, 신경외과, 소아청소년과, 이비인후과, 재활의학과, 한방내과",0,0,0
고양시,일산아르고요양병원,20100119,"경기도 고양시 일산동구 하늘마을1로 14 (중산동, 일산 조은프라자,  3층,4층일부,6층,7층)","경기도 고양시 일산동구 중산동 1813번지 조은프라자 3층,4층일부,6층,7층",10311,37.67500317,126.7870586,,영업중,,031-976-1844,,요양병원(일반요양병원),181144.8413,463644.897,요양병원(일반요양병원),35,48,242,3627.46,101 102 122 301 120,"재활의학과, 한방내과, 가정의학과, 신경과, 내과",0,0,0
고양시,일산이십일세기병원,20140509,"경기도 고양시 일산동구 중앙로 1059 (백석동, ISD빌딩 3~8층)",경기도 고양시 일산동구 백석동 1332번지 ISD빌딩 3~8층,10447,37.64392912,126.7861655,,영업중,,031-909-9600,,병원,181058.8397,460195.9735,병원,39,18,91,3602.99,106 105 116 109 101,"내과, 마취통증의학과, 영상의학과, 정형외과, 신경외과",0,0,0
고양시,일산자애병원,20060501,"경기도 고양시 일산동구 고봉로 20-21, 양우로데오랜드 304,305,401,503,506~509호 (장항동)",경기도 고양시 일산동구 장항동 740번지 3호 양우로데오랜드,10364,37.66366879,126.7657154,,영업중,,031-919-9942,,요양병원(일반요양병원),179253.0595,462400.3816,요양병원(일반요양병원),27,22,174,2340.71,301 122 120 106 105 104 101,"내과, 외과, 정형외과, 신경외과, 재활의학과, 가정의학과, 한방내과",0,0,0
고양시,일산중심병원,20071228,"경기도 고양시 일산서구 미래로 227, 일산중심병원 지하1-지상4층 (덕이동)",경기도 고양시 일산서구 덕이동 613번지 3호 일산중심병원,10228,37.69977682,126.7459052,,영업중,,031-810-2000,,병원,177518.296,466429.6463,병원,78,87,298,9974.1,122 120 116 115 114 111 102 101,"내과, 신경과, 소아청소년과, 피부과, 비뇨의학과, 영상의학과, 재활의학과, 가정의학과",0,0,0
고양시,일산참사랑요양병원,20070216,"경기도 고양시 일산동구 무궁화로 31-16 (장항동, 남정시티프라자8차 3층, 4층, 6층, 8층)","경기도 고양시 일산동구 장항2동 733번지 2호 남정시티프라자8차 3층, 4층, 6층, 8층",10364,37.66351083,126.7674388,,영업중,,319181070,,요양병원(일반요양병원),179415.1947,462371.6416,요양병원(일반요양병원),22,48,274,1787.41,101 102 113 114 115 120 122 306,"한방재활의학과, 가정의학과, 재활의학과, 비뇨의학과, 피부과, 이비인후과, 신경과, 내과",0,0,0
고양시,일산하이병원,20120817,경기도 고양시 일산동구 고양대로 761 (중산동),경기도 고양시 일산동구 중산동 1695번지,10338,37.68255308,126.7806014,,영업중,,031-1522-1275,,병원,180578.9748,464483.752,병원,33,18,76,5331.7,106 105 116 109 101,"내과, 마취통증의학과, 영상의학과, 정형외과, 신경외과",0,0,0
고양시,일산한울요양병원,20060116,"경기도 고양시 일산서구 고봉로 291 (일산동, 에이스스타디움7,8층)","경기도 고양시 일산서구 일산동 555-1번지 에이스스타디움 7,8층",10340,37.68529924,126.7771838,,영업중,,031-975-3700,,요양병원(일반요양병원),,,요양병원(일반요양병원),28,22,148,2255,101 104 120 308,"침구과, 재활의학과, 외과, 내과",0,0,0
고양시,일산현대요양병원,20070503,"경기도 고양시 일산동구 무궁화로 346, 지하1~2층,1~3층 (풍동)","경기도 고양시 일산동구 풍동 218번지 7호 지하1~2층,지상1~3층",10302,37.67646091,126.7981284,,영업중,,031 922 7575,,요양병원(일반요양병원),182125.5268,463814.6132,요양병원(일반요양병원),44,44,178,5432.49,301 122 120 118 116 115 114 113 111 102 101,"내과, 신경과, 소아청소년과, 이비인후과, 피부과, 비뇨의학과, 영상의학과, 병리과, 재활의학과, 가정의학과, 한방내과",0,0,0
고양시,일산호수요양병원,20051220,"경기도 고양시 일산동구 호수로 646-24 (장항동, 위너스 21-∥3,5,6,8층)","경기도 고양시 일산동구 장항2동 756번지 2호 위너스 21-∥3,5,6,8층",10401,37.65970709,126.7678292,,영업중,,031-903-8275,,요양병원(일반요양병원),179443.8113,461950.5761,요양병원(일반요양병원),28,32,192,3068.79,101 102 105 120 111 106 301 308,"침구과, 한방내과, 신경외과, 소아청소년과, 재활의학과, 정형외과, 신경과, 내과",0,0,0
고양시,재단법인자생의료재단일산자생한방병원,20091001,"경기도 고양시 일산동구 중앙로 1130, B2-01~19호 (마두동, 강촌마을6단지아파트)",경기도 고양시 일산동구 마두동 806번지 강촌마을6단지아파트,10422,37.6501211,126.7802115,,영업중,,931-7040,,한방병원,180539.609,460835.8507,한방병원,36,13,52,2083,301 302 303 304 305 306 307 308 101 116,"영상의학과, 내과, 침구과, 사상체질과, 한방재활의학과, 한방신경정신과, 한방안·이비인후·피부과, 한방소아과, 한방부인과, 한방내과",0,0,0
고양시,제이요양병원,20121213,"경기도 고양시 일산동구 중산로 117, 2,5층 101호 (중산동)",경기도 고양시 일산동구 중산동 1696번지,10338,37.68245735,126.7809826,,영업중,,977-8101~4,,요양병원(일반요양병원),180616.7769,464481.7648,요양병원(일반요양병원),25,30,140,2454.12,308 122 120 105 102,"신경과, 정형외과, 재활의학과, 가정의학과, 침구과",0,0,0
고양시,중산요양병원,20131202,경기도 고양시 일산동구 중산로 241 (중산동),경기도 고양시 일산동구 중산동 1561번지 1호 해태쇼핑타운 6~7층,10336,37.6936996,126.7801421,,영업중,,031-976-1388,,요양병원(일반요양병원),180555.4581,465725.1471,요양병원(일반요양병원),13,15,84,1003.7,101 122 102 104 105 120 301,"한방내과, 재활의학과, 정형외과, 외과, 신경과, 가정의학과, 내과",0,0,0
고양시,차연한방병원,20190423,"경기도 고양시 일산동구 중앙로 1312, 4~5층 (정발산동)",경기도 고양시 일산동구 정발산동 785번지 3호,10404,37.66307688,126.7712368,,영업중,,031-816-1010,,한방병원,179750.5855,462332.1231,한방병원,14,21,66,1678.7,308 307 306 305 304 303 302 301 122 120 116 111 106 105 101,"내과, 정형외과, 신경외과, 소아청소년과, 영상의학과, 재활의학과, 가정의학과, 한방내과, 한방부인과, 한방소아과, 한방안·이비인후·피부과, 한방신경정신과, 한방재활의학과, 사상체질과, 침구과",0,0,0
고양시,착한요양병원,20141106,"경기도 고양시 일산서구 원일로 69 (일산동, 씨티플라자 1층, 2층, 5층, 6층)","경기도 고양시 일산서구 일산동 606번지 1호 씨티플라자 1층, 2층, 5층, 6층",10350,37.68676118,126.7701605,,영업중,,031-1877-7288,,요양병원(일반요양병원),179661.5303,464960.0669,요양병원(일반요양병원),26,26,148,2125.3,102 120 306 307 308,"침구과, 사상체질과, 한방재활의학과, 재활의학과, 신경과",0,0,0
고양시,척사랑병원,20160824,"경기도 고양시 일산서구 중앙로 1448 (주엽동, 2층~5층)",경기도 고양시 일산서구 주엽동 21번지 1호 2층~5층,10387,37.67114928,126.75987,,영업중,,1522-7585,,병원,178747.0802,463221.5568,병원,26,15,61,2324,125 122 120 119 116 111 109 106 105 104 101,"내과, 외과, 정형외과, 신경외과, 마취통증의학과, 소아청소년과, 영상의학과, 진단검사의학과, 재활의학과, 가정의학과, 응급의학과",0,0,0
고양시,카프성모병원,20040217,"경기도 고양시 일산동구 일산로 86 (백석동, 한국음주문화센터)",경기도 고양시 일산동구 백석동 1241번지 한국음주문화센터,10450,37.64515741,126.7910619,,영업중,,031-810-9200,,병원,181518.2948,460347.4205,병원,19,28,149,2923.26,122 103,"정신건강의학과, 가정의학과",0,0,0
고양시,해븐리병원,20080711,"경기도 고양시 일산동구 중산로 117 (중산동, 성도빌딩,지하1층일부,1층일부,3층,4층)","경기도 고양시 일산동구 중산동 1696번지 성도빌딩 지하1층일부,1층일부,3층,4층",10338,37.68245735,126.7809826,,영업중,,031-922-8822,,병원,180616.7769,464481.7648,병원,19,14,57,2223.26,102 122 116 101,"내과, 영상의학과, 가정의학과, 신경과",0,0,0
고양시,햇살요양병원,20070607,경기도 고양시 일산동구 공릉천로33번길 71 (사리현동),"경기도 고양시 일산동구 사리현동 213-6 지1층,1~3층/ 212-8 1~3층",10260,37.6986851,126.8431507,,휴업,,031-963-4363,,요양병원(일반요양병원),186100,466287,요양병원(일반요양병원),13,21,102,775.07,101 122 301,"한방내과, 가정의학과, 내과",0,0,0
고양시,허유재병원,20040302,"경기도 고양시 일산동구 중앙로 1317, 지하1층~5층,6층 일부, 8층 (장항동)",경기도 고양시 일산동구 장항동 780번지,10401,37.66292889,126.7699404,,영업중,,031-817-1100,,병원,179633.3155,462306.0385,병원,101,35,61,8427.19,110 111 101 104 109 116,"영상의학과, 마취통증의학과, 외과, 내과, 소아청소년과, 산부인과",0,0,0
고양시,활기찬병원,20120125,"경기도 고양시 덕양구 화중로 50, 4,5,6층 (화정동)","경기도 고양시 덕양구 화정동 984번지 1호 반석프라자 4층, 5층, 6층",10500,37.63170669,126.8306859,,영업중,,3115770032,,병원,184983.7903,458829.95,병원,14,16,85,2101.6,105 106 101 116 109 104 120 102 114 115 113 111 119 110 122,"가정의학과, 산부인과, 진단검사의학과, 소아청소년과, 이비인후과, 비뇨의학과, 피부과, 신경과, 재활의학과, 외과, 마취통증의학과, 영상의학과, 내과, 신경외과, 정형외과",0,0,0
고양시,효그린요양병원,20080926,"경기도 고양시 덕양구 중앙로 478, 3,4층 (행신동, 미원프라자)","경기도 고양시 덕양구 행신동 195번지 1호 지하1층,2,3,4층",10492,37.61944378,126.8426598,,영업중,,031-979-0808,,요양병원(일반요양병원),186045.7363,457462.9091,요양병원(일반요양병원),20,21,124,982.54,101 102 103 111 112 113 114 115 120 122 301 303 306 307 308,"침구과, 사상체질과, 한방재활의학과, 한방소아과, 한방내과, 가정의학과, 재활의학과, 비뇨의학과, 피부과, 이비인후과, 안과, 소아청소년과, 정신건강의학과, 신경과, 내과",0,0,0
고양시,효림요양병원,20080814,"경기도 고양시 일산서구 주화로 88 (주엽동, 효림빌딩 201호, 205~6호, 3층, 10층)","경기도 고양시 일산서구 주엽동 115번지 2호 효림빌딩201호,205~6호, 3층, 10층",10387,37.67055498,126.7585266,,영업중,,319190041,,요양병원(일반요양병원),178627.168,463154.1873,요양병원(일반요양병원),21,28,156,1838.82,308 307 306 305 301 122 120 114 104 102 101,"내과, 신경과, 외과, 피부과, 재활의학과, 가정의학과, 한방내과, 한방신경정신과, 한방재활의학과, 사상체질과, 침구과",0,0,0
과천시,과천 연세스위트치과병원,20140723,"경기도 과천시 별양상가1로 13, 6층 일부호 (별양동, 교보빌딩)",경기도 과천시 별양동 1-16번지 교보빌딩 6층 일부호,13837,37.42708321,126.991505,,영업중,,02-3678-2875,,치과병원,199182.9824,436115.3665,치과병원,3,0,0,266.63,402 403 404 405 406 407 408 409 410 411,"예방치과, 구강병리과, 영상치의학과, 구강내과, 치과보존과, 치주과, 소아치과, 치과교정과, 치과보철과, 구강악안면외과",0,0,0
광명시,광명21세기병원,20130529,"경기도 광명시 광명로 963, 1~9층 (광명동)","경기도 광명시 광명동 51-5번지 , 1~9층",14200,37.48465685,126.856316,,영업중,,02-2610-5800,,병원,,,병원,38,21,86,2790.2,101 105 106 109 116,"영상의학과, 마취통증의학과, 신경외과, 정형외과, 내과",0,0,0
광명시,광명기대찬병원,20190311,"경기도 광명시 오리로 872, 4-7층 (철산동)",경기도 광명시 철산동 258번지 4-7층,14235,37.47608477,126.8657,,영업중,,02-6274-2580,,병원,188049.392,441552.6852,병원,18,11,37,1537.92,122 120 116 109 106 105 101,"내과, 정형외과, 신경외과, 마취통증의학과, 영상의학과, 재활의학과, 가정의학과",0,0,0
광명시,광명새움병원,20121210,"경기도 광명시 오리로 518, 3~6층 (소하동)","경기도 광명시 소하동 1340-2번지 , 3~6층",14316,37.44813239,126.8819614,,영업중,,6924-8201,,병원,189489.9523,438456.2606,병원,50,14,67,2711.92,101 105 106 109 116,"영상의학과, 마취통증의학과, 신경외과, 정형외과, 내과",0,0,0
광명시,광명성애병원,19831209,"경기도 광명시 디지털로 36 (철산동, 광명성애병원)",경기도 광명시 철산동 389번지 광명성애병원,14241,37.47332233,126.8716561,,영업중,,02-2680-7114,,종합병원,188639.7508,441262.4698,종합병원,337,97,331,27541.9,101 102 103 104 105 106 107 108 109 110 111 112 113 114 115 116 118 119 120 122 124 125 401 402,"구강악안면외과, 치과, 응급의학과, 직업환경의학과, 가정의학과, 재활의학과, 진단검사의학과, 병리과, 영상의학과, 비뇨의학과, 피부과, 이비인후과, 안과, 소아청소년과, 산부인과, 마취통증의학과, 성형외과, 흉부외과, 신경외과, 정형외과, 외과, 정신건강의학과, 신경과, 내과",0,0,0
광명시,광명효요양병원,20110707,"경기도 광명시 오리로 352 (소하동, 이화프라자)",경기도 광명시 소하동 1269번지 이화프라자,14327,37.43398424,126.8796534,,영업중,,02-834-8080,,요양병원(일반요양병원),189281.5856,436877.8213,요양병원(일반요양병원),32,31,193,3335.98,302 301 122 116 105 104 102 101,"내과, 신경과, 외과, 정형외과, 영상의학과, 가정의학과, 한방내과, 한방부인과",0,0,0
광명시,로하스광명요양병원,20130226,"경기도 광명시 디지털로 25 (철산동, 청덕빌딩)",경기도 광명시 철산동 446번지 청덕빌딩,14239,37.4740988,126.8701953,,영업중,,02-2619-0075,,요양병원(일반요양병원),188447.4758,441332.6787,요양병원(일반요양병원),30,31,217,2029.02,101 102 103 104 105 106 109 120 122 306 307 308,"침구과, 사상체질과, 한방재활의학과, 가정의학과, 재활의학과, 마취통증의학과, 신경외과, 정형외과, 외과, 정신건강의학과, 신경과, 내과",0,0,0
광명시,서울대효요양병원,20120803,"경기도 광명시 오리로 518, 7,8,9,10층 (소하동, 대교빌딩)","경기도 광명시 소하동 1340-2번지 대교빌딩 7,8,9,10층",14316,37.44820211,126.8820233,,영업중,,02-899-9114,,요양병원(일반요양병원),189489.9523,438456.2606,요양병원(일반요양병원),38,24,176,2883.23,101 102 116 120 122 306,"한방재활의학과, 가정의학과, 재활의학과, 영상의학과, 신경과, 내과",0,0,0
광명시,아이원병원,20160711,"경기도 광명시 소하로75번길 10 (소하동, 하나로빌딩)",경기도 광명시 소하동,14316,37.44782905,126.8849227,,영업중,,1833-7588,,병원,189743,438442,병원,37,42,76,2634.5,114 113 111 101,"내과, 소아청소년과, 이비인후과, 피부과",0,0,0
광명시,예지원요양병원,20111130,"경기도 광명시 광명로 844 (광명동, 예지원 요양병원)",경기도 광명시 광명동 290번지 23호 예지원 요양병원,14273,37.47442582,126.8523237,,영업중,,02-2060-6114,,요양병원(일반요양병원),186868.2164,441373.4973,요양병원(일반요양병원),18,18,138,3216.8,122 120 114 111 106 105 104 102 101,"내과, 신경과, 외과, 정형외과, 신경외과, 소아청소년과, 피부과, 재활의학과, 가정의학과",0,0,0
광명시,탑요양병원,20180725,"경기도 광명시 목감로 256, 지하1~지상7층 (광명동)",경기도 광명시 광명동 52번지 1호 지하1~지상7층,14200,37.48500966,126.8559763,,영업중,,02-3666-1119,,요양병원(일반요양병원),187190.9926,442554.973,요양병원(일반요양병원),28,47,228,4616.34,308 307 306 305 304 303 302 301 125 122 120 114 107 106 105 104 102 101,"내과, 신경과, 외과, 정형외과, 신경외과, 흉부외과, 피부과, 재활의학과, 가정의학과, 응급의학과, 한방내과, 한방부인과, 한방소아과, 한방안·이비인후·피부과, 한방신경정신과, 한방재활의학과, 사상체질과, 침구과",0,0,0
광주시,강남제일요양병원,20180628,경기도 광주시 오포읍 새말길 188,경기도 광주시 오포읍 신현리 460번지,12771,37.37436512,127.163289,,영업중,,031-711-0220,,요양병원(일반요양병원),214407.6855,430298.5722,요양병원(일반요양병원),11,30,175,3175.72,308 306 301 122 120 114 105 102 101,"내과, 신경과, 정형외과, 피부과, 재활의학과, 가정의학과, 한방내과, 한방재활의학과, 침구과",0,0,0
광주시,더플러스병원,20131010,경기도 광주시 경안로 40 (경안동),경기도 광주시 경안동 36-17번지,12761,37.40938727,127.2560629,,영업중,,031-763-7582,,병원,222615,434174,병원,13,14,62,1516,122 119 116 109 106 105 102 101,"내과, 신경과, 정형외과, 신경외과, 마취통증의학과, 영상의학과, 진단검사의학과, 가정의학과",0,0,0
광주시,선한빛요양병원,20170515,"경기도 광주시 경충대로1926번길 119 (탄벌동, 연세대학교의과대학세브란스정신건강병원)",경기도 광주시 탄벌동 696번지 6호,12748,37.41172079,127.2247032,,영업중,,031-765-0908,,요양병원(일반요양병원),219832.4818,434399.3236,요양병원(일반요양병원),10,64,179,6204.12,308 307 306 305 301 120 106 105 104 102 101,"내과, 신경과, 외과, 정형외과, 신경외과, 재활의학과, 한방내과, 한방신경정신과, 한방재활의학과, 사상체질과, 침구과",0,0,0
광주시,스마일디자인치과병원,20170417,"경기도 광주시 광주대로 35, 5층 (경안동)",경기도 광주시 경안동 20번지 14호,12758,37.4096667,127.2601413,,영업중,,031-768-2333,,치과병원,222966.3765,434212.6151,치과병원,7,0,0,859.91,411 407 406 405 404 403,"치과보철과, 치과교정과, 소아치과, 치주과, 치과보존과, 예방치과",0,0,0
광주시,에스알씨(SRC)노인전문병원,20100816,경기도 광주시 초월읍 경수길 25,"경기도 광주시 초월읍 지월리 563번지 1호  주6동 기숙사동 1층,2층, 주7 직업훈련동 2층, 학교동2층",12728,37.41913739,127.2872178,,영업중,,"031-760-3671,4",,요양병원(일반요양병원),225436.7519,435211.3738,요양병원(일반요양병원),39,78,242,5725.59,122 120 101,"내과, 재활의학과, 가정의학과",0,0,0
광주시,에스알씨(SRC)재활병원,19930830,경기도 광주시 초월읍 경수길 25,경기도 광주시 초월읍 지월리 563번지 1호 외 7필지,12728,37.41913739,127.2872178,,영업중,,031-760-3636,,병원,225436.7519,435211.3738,병원,39,53,202,8675.62,120 122 101 111 116,"내과, 소아청소년과, 영상의학과, 재활의학과, 가정의학과",0,0,0
광주시,위더스요양병원,20131017,경기도 광주시 초월읍 경충대로 974-43,경기도 광주시 초월읍 산이리 110번지 8호,12799,37.36728841,127.3108302,,영업중,,031-798-5554,,요양병원(일반요양병원),227470.2253,429523.2191,요양병원(일반요양병원),9,31,179,2837.11,301 122 110 106 105 104 101,"내과, 외과, 정형외과, 신경외과, 산부인과, 가정의학과, 한방내과",0,0,0
광주시,참우리요양병원,20170220,경기도 광주시 광주대로 45 (경안동),경기도 광주시 경안동 20번지 61호,12756,37.41089214,127.2601456,,영업중,,031-606-9595,,요양병원(일반요양병원),222966.0981,434349.2579,요양병원(일반요양병원),16,40,184,3644.05,308 306 305 304 303 302 301 122 120 110 106 105 104 102 101,"내과, 신경과, 외과, 정형외과, 신경외과, 산부인과, 재활의학과, 가정의학과, 한방내과, 한방부인과, 한방소아과, 한방안·이비인후·피부과, 한방신경정신과, 한방재활의학과, 침구과",0,0,0
광주시,참조은병원,20101118,경기도 광주시 광주대로 45 (경안동),경기도 광주시 경안동 20번지 61호,12756,37.410914,127.2599527,,영업중,,1600-9955,,종합병원,222966.0981,434349.2579,종합병원,150,65,289,18146.72,403 402 125 122 120 119 116 115 114 113 111 110 109 108 107 106 105 104 103 102 101,"내과, 신경과, 정신건강의학과, 외과, 정형외과, 신경외과, 흉부외과, 성형외과, 마취통증의학과, 산부인과, 소아청소년과, 이비인후과, 피부과, 비뇨의학과, 영상의학과, 진단검사의학과, 재활의학과, 가정의학과, 응급의학과, 구강악안면외과, 치과보철과",0,0,0
광주시,한사랑요양병원,20110906,경기도 광주시 도척면 도척로 312,경기도 광주시 도척면 진우리 215번지,12814,37.32524113,127.3360756,,영업중,,031-763-3352,,요양병원(일반요양병원),229720.0687,424848.515,요양병원(일반요양병원),8,17,70,1225.83,308 304 302 301 122 115 114 113 111 106 105 104 101,"내과, 외과, 정형외과, 신경외과, 소아청소년과, 이비인후과, 피부과, 비뇨의학과, 가정의학과, 한방내과, 한방부인과, 한방안·이비인후·피부과, 침구과",0,0,0
광주시,효천요양병원,20141107,경기도 광주시 도척면 도척로 376-47,경기도 광주시 도척면 진우리 377번지 2호,12814,37.3174624,127.3309219,,영업중,,031-799-8600,,요양병원(일반요양병원),229266.7363,423998.78,요양병원(일반요양병원),15,40,169,3356.82,301 122 120 106 104 102 101,"내과, 신경과, 외과, 신경외과, 재활의학과, 가정의학과, 한방내과",0,0,0
구리시,구리한빛요양병원,20170807,"경기도 구리시 검배로 42, 2층,3층~6층 (수택동)",경기도 구리시 수택동 486번지 4호,11932,37.59749994,127.1436484,,영업중,,031-524-9990,,요양병원(일반요양병원),212615.1267,455027.6056,요양병원(일반요양병원),19,44,197,3332,308 301 122 120 115 114 113 109 106 105 104 102 101,"내과, 신경과, 외과, 정형외과, 신경외과, 마취통증의학과, 이비인후과, 피부과, 비뇨의학과, 재활의학과, 가정의학과, 한방내과, 침구과",0,0,0
구리시,구리효요양병원,20121107,"경기도 구리시 동구릉로 56, 영빈웨딩프라자 지하1층,2층~5층층 (인창동)",경기도 구리시 인창동 576번지 20호 영빈웨딩프라자,11923,37.6050961,127.1340955,,영업중,,565-3114,,요양병원(일반요양병원),211773.1898,455866.0136,요양병원(일반요양병원),33,28,178,2306,104 122 105 120 101 116 102 301 302 308 305 306,"내과, 신경과, 외과, 정형외과, 영상의학과, 재활의학과, 가정의학과, 한방내과, 한방부인과, 한방신경정신과, 한방재활의학과, 침구과",0,0,0
구리시,국군구리병원,20170919,"경기도 구리시 인창2로 177 (인창동, 국군구리병원)",경기도 구리시 인창동 661-8번지 국군구리병원,11913,37.61003541,127.119398,,영업중,,031-554-0940,,병원,210408,456465,병원,37,6,30,9705.11,406 403 402 122 119 116 114 113 112 106 105 104 103 101,"내과, 정신건강의학과, 외과, 정형외과, 신경외과, 안과, 이비인후과, 피부과, 영상의학과, 진단검사의학과, 가정의학과, 구강악안면외과, 치과보철과, 치주과",0,0,0
구리시,굿병원,20120223,"경기도 구리시 검배로 46, 굿빌딩 2~9층,13층층 (수택동)",경기도 구리시 수택동 486번지 9호 굿빌딩,11932,37.59719683,127.1438707,,영업중,,031-564-4114,,병원,212640.8068,455006.3504,병원,23,21,89,4066,101 106 105 116 109 120 111 104,"내과, 외과, 정형외과, 신경외과, 마취통증의학과, 소아청소년과, 영상의학과, 재활의학과",0,0,0
구리시,서울라이즈요양병원,20130923,"경기도 구리시 검배로 37, 6~10층 (수택동, 동진스카이빌딩)",경기도 구리시 수택동 515번지 53호 동진스카이빌딩 6층~10층,11929,37.59813108,127.1437133,,영업중,,031-564-1991,,요양병원(일반요양병원),212620.5373,455100.7234,요양병원(일반요양병원),32,27,190,2363,101 120 301 102,"내과, 신경과, 재활의학과, 한방내과",0,0,0
구리시,연세마음병원,20161201,경기도 구리시 체육관로172번길 55 (수택동),경기도 구리시 수택동 383-16번지,11927,37.5998962,127.1391537,,영업중,,031-554-0070,,요양병원(정신병원),212223.901,455305.2909,요양병원(정신병원),12,24,137,1851.24,103 101,"내과, 정신건강의학과",0,0,0
구리시,오케이참병원,20121010,"경기도 구리시 건원대로 95, 3,4,5,6층 (인창동, 인창프라자)","경기도 구리시 인창동 412-15번지 인창프라자 3,4,5,6층",11918,37.60939842,127.1379606,,영업중,,031-567-5700,,병원,212117.6126,456344.4863,병원,14,17,75,2268,308 306 305 303 301 122 116 115 114 113 111 109 106 105 104 102 101,"내과, 신경과, 외과, 정형외과, 신경외과, 마취통증의학과, 소아청소년과, 이비인후과, 피부과, 비뇨의학과, 영상의학과, 가정의학과, 한방내과, 한방소아과, 한방신경정신과, 한방재활의학과, 침구과",0,0,0
구리시,윤서병원,20030401,경기도 구리시 건원대로 47 (인창동),경기도 구리시 인창동 344번지 19호,11918,37.60521198,127.139533,,영업중,,031-553-6650,,병원,212247.4736,455884.948,병원,37,32,135,3577.54,101 104 106 105 108 111 113 114 115 116 120 119 109 102,"내과, 신경과, 외과, 정형외과, 신경외과, 성형외과, 마취통증의학과, 소아청소년과, 이비인후과, 피부과, 비뇨의학과, 영상의학과, 진단검사의학과, 재활의학과",0,0,0
구리시,의료법인기상의료재단카이저병원,20080402,"경기도 구리시 건원대로 44, 5,6,7층 (인창동, 태영빌딩)","경기도 구리시 인창동 670번지 1호 태영빌딩 5,6,7층",11921,37.6050436,127.1404742,,영업중,,031-554-7723,,병원,212315.9583,455871.8528,병원,33,37,184,3473,120 105 101,"내과, 정형외과, 재활의학과",0,0,0
구리시,재단법인원진녹색병원,19990601,경기도 구리시 동구릉로 65 (인창동),경기도 구리시 인창동 527번지 44호,11919,37.60592469,127.1338875,,영업중,,031-550-1111,,병원,211737.5448,455974.7048,병원,66,32,134,5366.13,308 307 306 305 304 303 302 301 122 120 116 104 103 101,"내과, 정신건강의학과, 외과, 영상의학과, 재활의학과, 가정의학과, 한방내과, 한방부인과, 한방소아과, 한방안·이비인후·피부과, 한방신경정신과, 한방재활의학과, 사상체질과, 침구과",0,0,0
구리시,좋은아침병원,20150810,"경기도 구리시 경춘로 144, 지하1층~5층 (교문동, 대성빌딩)",경기도 구리시 교문동 199-1번지 대성빌딩 지하 1층~5층,11924,37.60044496,127.1311389,,영업중,,031-566-1000,,병원,211514.5343,455348.3601,병원,63,17,88,4499,101 105 106 109 116 119,"내과, 정형외과, 신경외과, 마취통증의학과, 영상의학과, 진단검사의학과",0,0,0
구리시,참튼튼병원,20110928,"경기도 구리시 체육관로 163 (교문동, 근린생활,의료,업무시설)","경기도 구리시 교문동 228번지 19호 (지하1층,2,3,4,6,7층)",11925,37.59915315,127.1360165,,영업중,,1588-7562,,병원,211942.088,455214.1782,병원,21,16,72,2321.93,120 118 116 115 114 111 110 109 106 105 104 102 101,"내과, 신경과, 외과, 정형외과, 신경외과, 마취통증의학과, 산부인과, 소아청소년과, 피부과, 비뇨의학과, 영상의학과, 병리과, 재활의학과",0,0,0
구리시,투재암요양병원,20170913,"경기도 구리시 아차산로 493, D동 (교문동, 중앙하이츠티움)",경기도 구리시 교문동 285-8번지 중앙하이츠티움 D동,11952,37.59899045,127.1300699,,영업중,,031-528-8899,,요양병원(일반요양병원),211413.8647,455194.2994,요양병원(일반요양병원),48,39,218,3962.45,301 122 120 108 106 105 104 102 101,"내과, 신경과, 외과, 정형외과, 신경외과, 성형외과, 재활의학과, 가정의학과, 한방내과",0,0,0
구리시,한양대학교구리병원,19950603,경기도 구리시 경춘로 153 (교문동),경기도 구리시 교문1동 249번지 1호,11923,37.60118837,127.1325173,,영업중,,1644-9118,,종합병원,211626.5775,455439.1131,종합병원,743,116,556,42432.22,403 125 124 123 120 119 118 116 115 114 113 112 111 110 109 108 107 106 105 104 103 102 101,"내과, 신경과, 정신건강의학과, 외과, 정형외과, 신경외과, 흉부외과, 성형외과, 마취통증의학과, 산부인과, 소아청소년과, 안과, 이비인후과, 피부과, 비뇨의학과, 영상의학과, 병리과, 진단검사의학과, 재활의학과, 핵의학과, 직업환경의학과, 응급의학과, 치과보철과",0,0,0
구리시,행복한외과병원,20161101,"경기도 구리시 검배로 78 (수택동, 행복한외과)",경기도 구리시 수택동 489-1번지 행복한외과,11932,37.5953106,127.1464488,,영업중,,031-557-7582,,병원,212870.4293,454794.7264,병원,6,15,43,1304.36,116 114 105 104 101,"내과, 외과, 정형외과, 피부과, 영상의학과",0,0,0
군포시,군포성모병원,20151119,"경기도 군포시 용호1로2번길 47-7, 1층,2층 (당동, 미성데코플라자)","경기도 군포시 당동 962번지 3호 미성데코프라자 1층, 2층",15871,37.34657874,126.9412052,,영업중,,031-394-7585~6,,병원,194722.0814,427175.8801,병원,13,39,142,3192.5,122 120 114 109 106 105 104 102 101,"내과, 신경과, 외과, 정형외과, 신경외과, 마취통증의학과, 피부과, 재활의학과, 가정의학과",0,0,0
군포시,군포참요양병원,20160923,"경기도 군포시 군포로 493 (당동, 군포병원B동)",경기도 군포시 당동 785번지 3호 군포병원 B동,15861,37.3505553,126.9440123,,영업중,,031-395-7772,,요양병원(일반요양병원),194972.233,427624.0223,요양병원(일반요양병원),5,22,145,2931.44,308 122 120 102 101,"내과, 신경과, 재활의학과, 가정의학과, 침구과",0,0,0
군포시,남천병원,19980408,경기도 군포시 고산로 575 (산본동),경기도 군포시 산본동 1100-1번지,15820,37.36460974,126.9258722,,영업중,,031-390-2114,,병원,193366.4807,429183.5723,병원,32,38,141,8405.85,407 406 405 404 403 402 122 120 116 115 114 113 111 110 107 106 105 104 102 101,"내과, 신경과, 외과, 정형외과, 신경외과, 흉부외과, 산부인과, 소아청소년과, 이비인후과, 피부과, 비뇨의학과, 영상의학과, 재활의학과, 가정의학과, 구강악안면외과, 치과보철과, 치과교정과, 소아치과, 치주과, 치과보존과",0,0,0
군포시,미라클요양병원,20070402,경기도 군포시 삼성로8번길 4-20 (부곡동),경기도 군포시 부곡동 1219번지 3호,15874,37.3363414,126.9350638,,영업중,,031-393-5566,,요양병원(일반요양병원),194179.8622,426044.2353,요양병원(일반요양병원),25,23,134,2201.4,122 120 106 105 102 101,"내과, 신경과, 정형외과, 신경외과, 재활의학과, 가정의학과",0,0,0
군포시,사랑애요양병원,20110429,"경기도 군포시 군포로573번길 3 (당동, 럭키베스트빌 201,301,401호)",경기도 군포시 군포1동 732번지 3호,15839,37.35703499,126.9468404,,영업중,,031-455-5454,,요양병원(일반요양병원),195225.8893,428342.2657,요양병원(일반요양병원),16,21,146,1686.26,105 101 111 122 120 102 104 301,"한방내과, 외과, 신경과, 재활의학과, 가정의학과, 소아청소년과, 내과, 정형외과",0,0,0
군포시,산본성심요양병원,20100115,"경기도 군포시 고산로 693, 5∼6층 401-1호,401-2호 (산본동)","경기도 군포시 산본동 1060번지 1호 5∼6층, 401-1호,401-2호",15802,37.3718865,126.9349866,,영업중,,031-393-9944,,요양병원(일반요양병원),194175.3975,429991.2895,요양병원(일반요양병원),13,21,118,1615.03,101 104 102 120 106 105 114 111 301,"한방내과, 소아청소년과, 피부과, 정형외과, 신경외과, 재활의학과, 신경과, 외과, 내과",0,0,0
군포시,산본제일병원,19940809,경기도 군포시 산본로 374 (산본동),경기도 군포시 산본2동 1097번지 4호,15818,37.3635858,126.9310883,,영업중,,031-396-3301,,병원,193830.5842,429069.2209,병원,43,41,79,8726.27,110 111 109 116 101 104,"외과, 내과, 영상의학과, 마취통증의학과, 소아청소년과, 산부인과",0,0,0
군포시,삼경요양병원,20150204,"경기도 군포시 번영로 516 (금정동, B01,2층,304호,5,6,7층)","경기도 군포시 금정동 873번지 B01,2층,304호,5,6,7층",15862,37.3581457,126.9345136,,영업중,,031-390-1300,,요양병원(일반요양병원),194132.1538,428466.7086,요양병원(일반요양병원),11,20,111,2323.3,104 101 105 301,"한방내과, 정형외과, 내과, 외과",0,0,0
군포시,원광대학교 산본병원,20000801,경기도 군포시 산본로 321 (산본동),경기도 군포시 산본동 1142번지,15865,37.35933456,126.9335644,,영업중,,031-390-2300,,종합병원,194048.8768,428598.0717,종합병원,286,66,236,27675,101 102 103 104 105 106 107 109 110 111 112 113 115 116 118 119 120 122 125 301 305 306 402,"구강악안면외과, 한방재활의학과, 한방신경정신과, 한방내과, 응급의학과, 가정의학과, 재활의학과, 진단검사의학과, 병리과, 영상의학과, 비뇨의학과, 이비인후과, 안과, 소아청소년과, 산부인과, 마취통증의학과, 흉부외과, 신경외과, 정형외과, 외과, 정신건강의학과, 신경과, 내과",0,0,0
군포시,원광대학교치과대학산본치과병원,20040629,"경기도 군포시 산본로 321, 원광대학교의과대학산본병원 5층,6층 (산본동)",경기도 군포시 산본동 1142번지 원광대학교의과대학산본병원,15865,37.35933456,126.9335644,,영업중,,031-390-2875,,치과병원,194048.8768,428598.0717,치과병원,12,2,5,1924.78,402 403 404 405 406 407 408,"구강내과, 치과보존과, 치주과, 소아치과, 치과교정과, 치과보철과, 구강악안면외과",0,0,0
군포시,윈치과병원,20030424,"경기도 군포시 산본로 398, 10층 (산본동, 성우빌딩)",경기도 군포시 산본동 1099-1 성우빌딩10층,15818,37.3654228,126.9293707,,영업중,,1544-7528,,치과병원,193678.703,429272.8477,치과병원,3,0,0,477.34,204 203 202 205 206,"치과보존과, 치주과, 치과보철과, 치과교정과, 소아치과",0,0,0
군포시,의료법인 두현의료재단 그로스요양병원,20120627,"경기도 군포시 당산로 104, B102호,201호,301∼309호 (금정동, 두현타워)","경기도 군포시  765번지 두현타워 B102호,201호,301-309호",15830,37.3609181,126.9463747,,영업중,,031-468-0303,,요양병원(일반요양병원),195183.7036,428772.6398,요양병원(일반요양병원),13,21,112,1892.91,120 122 102 101 104 106 105 108 112 114 115 113 111 109 301 302 303 304 305 308 306 307 309,"한방응급과, 사상체질과, 한방재활의학과, 침구과, 한방신경정신과, 한방안·이비인후·피부과, 한방소아과, 한방부인과, 한방내과, 마취통증의학과, 소아청소년과, 이비인후과, 비뇨의학과, 피부과, 안과, 성형외과, 정형외과, 신경외과, 외과, 내과, 신경과, 가정의학과, 재활의학과",0,0,0
군포시,의료법인 복지요양병원,20091023,"경기도 군포시 군포로510번길 25, 2층 (당동, 누리에뜰해밀)",경기도 군포시 군포1동 780번지 2호 누리에뜰해밀2층,15855,37.35206122,126.946483,,휴업,,031-456-7841,,요양병원(일반요양병원),195191.3367,427790.9943,요양병원(일반요양병원),11,15,113,1182.61,120 101 122 102 106 104 301 308,"침구과, 한방내과, 외과, 신경외과, 신경과, 가정의학과, 내과, 재활의학과",0,0,0
군포시,의료법인 희망나눔의료재단 휴성심요양병원,20110408,"경기도 군포시 당정역로4번길 11, 유영타운 B01,105,301,401~405,501~502호 (당정동)",경기도 군포시 당정동 1013번지 6호 유영타운,15851,37.343647,126.9494234,,영업중,,031-477-9797,,요양병원(정신병원),195453.3529,426854.6759,요양병원(정신병원),15,36,170,1969.78,102 101 104 105 106 115 120 111 103,"정신건강의학과, 소아청소년과, 재활의학과, 비뇨의학과, 신경외과, 정형외과, 외과, 내과, 신경과",0,0,0
군포시,효산의료재단 지샘병원,20130612,"경기도 군포시 군포로 591 (당동, (G샘병원)군포샘병원)",경기도 군포시 당동 730번지,15839,37.35864078,126.9473039,,영업중,,031-389-3000,,종합병원,195265.2879,428515.9235,종합병원,364,87,364,25098.98,402 301 125 124 123 122 120 119 118 117 116 115 113 112 111 110 109 108 107 106 105 104 103 102 101,"내과, 신경과, 정신건강의학과, 외과, 정형외과, 신경외과, 흉부외과, 성형외과, 마취통증의학과, 산부인과, 소아청소년과, 안과, 이비인후과, 비뇨의학과, 영상의학과, 방사선종양학과, 병리과, 진단검사의학과, 재활의학과, 가정의학과, 핵의학과, 직업환경의학과, 응급의학과, 한방내과, 구강악안면외과",0,0,0
김포시,가자연세병원,20170929,"경기도 김포시 돌문로 43, 2층 (사우동)",경기도 김포시 사우동 237번지 2호,10108,37.6188304,126.7178326,,영업중,,031-998-8009,,병원,175023.331,457434.6446,병원,16,13,48,2579,122 116 109 106 105 101,"내과, 정형외과, 신경외과, 마취통증의학과, 영상의학과, 가정의학과",0,0,0
김포시,김포경희25병원,20190619,"경기도 김포시 김포한강8로 382, 고은메디타워 9-10층 (구래동)",경기도 김포시 구래동 6885번지 2호,10071,37.64348655,126.6265849,,영업중,,1600-7519,,병원,166979.0039,460200.5598,병원,4,21,61,1455.83,122 301 101 302 306 308 305 304,"내과, 가정의학과, 한방내과, 한방부인과, 한방안·이비인후·피부과, 한방신경정신과, 한방재활의학과, 침구과",0,0,0
김포시,김포다올요양병원,20191224,"경기도 김포시 김포한강10로133번길 67, 지1-2층 (구래동)",경기도 김포시 구래동 6871번지 17호,10071,37.64090376,126.6191201,,영업중,,031-989-7587,,요양병원(일반요양병원),,,요양병원(일반요양병원),7,35,189,2411.91,120 105 104 102 101,"내과, 신경과, 외과, 정형외과, 재활의학과",0,0,0
김포시,김포다은병원,20110729,경기도 김포시 북변중로65번길 32 (북변동),경기도 김포시 북변동 374번지 2호,10106,37.6254076,126.7105238,,영업중,,031-996-1338,,요양병원(정신병원),174379.6333,458168.3094,요양병원(정신병원),11,22,186,2084.3,122 120 103 102 101,"내과, 신경과, 정신건강의학과, 재활의학과, 가정의학과",0,0,0
김포시,김포다조은병원,20190109,경기도 김포시 통진읍 김포대로 2214,경기도 김포시 통진읍 마송리 101번지 8호,10018,37.6894021,126.6000841,,영업중,,031-996-9666,,병원,164662.2594,465307.2406,병원,16,18,60,2827.29,116 109 106 105 101,"내과, 정형외과, 신경외과, 마취통증의학과, 영상의학과",0,0,0
김포시,김포보배한방병원,20200210,"경기도 김포시 풍무로 174, 풍무메디칼프라자 5~9층층 (풍무동)",경기도 김포시 풍무동 35번지 6호,10113,37.61048369,126.7251789,,영업중,,031-992-7271,,한방병원,175651.0419,456499.2737,한방병원,6,25,63,1675.48,308 307 306 305 304 303 302 301 122 120 116 114 113 106 105 102 101,"내과, 신경과, 정형외과, 신경외과, 이비인후과, 피부과, 영상의학과, 재활의학과, 가정의학과, 한방내과, 한방부인과, 한방소아과, 한방안·이비인후·피부과, 한방신경정신과, 한방재활의학과, 사상체질과, 침구과",0,0,0
김포시,김포봄한방병원,20200317,"경기도 김포시 김포한강4로 543, 지오프라자 1동 5~6층층 (구래동)",경기도 김포시 구래동 6879번지 5호 지오프라자,10071,37.64532986,126.6235711,,영업중,,031-981-0020,,한방병원,166708.6935,460397.294,한방병원,4,26,80,2153.55,308 307 306 305 304 303 302 301 106 105 101,"내과, 정형외과, 신경외과, 한방내과, 한방부인과, 한방소아과, 한방안·이비인후·피부과, 한방신경정신과, 한방재활의학과, 사상체질과, 침구과",0,0,0
김포시,김포아이제일병원,20190318,"경기도 김포시 김포한강8로 382, 고은메디타원 6,7,8층 (구래동)",경기도 김포시 구래동 6885번지 2호,10071,37.64356802,126.6266409,,영업중,,031-8083-7575,,병원,166979.0039,460200.5598,병원,3,53,86,2638.62,119 118 116 114 113 111 101,"내과, 소아청소년과, 이비인후과, 피부과, 영상의학과, 병리과, 진단검사의학과",0,0,0
김포시,김포에이치(H)병원,20190312,"경기도 김포시 김포한강8로 412, 5-9층 (구래동)",경기도 김포시 구래동 6884번지 2호,10071,37.64279987,126.6231666,,영업중,,031-8049-0077,,병원,166677.3133,460125.3117,병원,18,51,195,3974.1,308 307 306 305 304 303 302 301 122 120 114 113 106 105 104 101,"내과, 외과, 정형외과, 신경외과, 이비인후과, 피부과, 재활의학과, 가정의학과, 한방내과, 한방부인과, 한방소아과, 한방안·이비인후·피부과, 한방신경정신과, 한방재활의학과, 사상체질과, 침구과",0,0,0
김포시,김포예사랑병원,20090403,"경기도 김포시 중봉1로 12, 2,5,6층 (감정동, e삼메디칼센터)","경기도 김포시 감정동 551번지 8호 e삼메다칼센터 2,5,6층",10104,37.6223525,126.6994916,,영업중,,031-997-7204,,병원,173405.7342,457832.7848,병원,14,22,150,860,103,정신건강의학과,0,0,0
김포시,김포요양병원,20080626,"경기도 김포시 풍무로 20, 3-4층 (풍무동)",경기도 김포시 풍무동 595번지,10120,37.59749413,126.7210507,,영업중,,031-985-5720,,요양병원(일반요양병원),175300.4922,455067.8985,요양병원(일반요양병원),20,23,139,1842.06,308 307 304 301 122 120 105 104 102 101,"내과, 신경과, 외과, 정형외과, 재활의학과, 가정의학과, 한방내과, 한방안·이비인후·피부과, 사상체질과, 침구과",0,0,0
김포시,김포한누리병원,19970206,경기도 김포시 월곶면 김포대로 2515-26,경기도 김포시 월곶면 갈산리 465-21,10023,37.7003451,126.568593,,영업중,,031-981-3000,,병원,161890.4456,466534.3612,병원,15,37,269,2316.95,103 101 111,"소아청소년과, 내과, 정신건강의학과",0,0,0
김포시,나리여성병원,20020624,"경기도 김포시 돌문로 99, 나리병원 (사우동)",경기도 김포시 사우동 201-38번지 나리병원,10108,37.62188124,126.7126898,,영업중,,031-982-5700,,병원,174570.2536,457774.5166,병원,16,27,52,3785.91,111 110 109 104 101,"내과, 외과, 마취통증의학과, 산부인과, 소아청소년과",0,0,0
김포시,새빛한방병원,20190517,"경기도 김포시 김포한강4로135번길 11, 골든프라자 7,8,9층 (장기동)",경기도 김포시 장기동 1601번지 골든프라자,10083,37.64463349,126.6662476,,영업중,,1566-8536,,한방병원,170480.5679,460313.2075,한방병원,6,14,43,816.32,306 305 304 303 302 301 116 101,"내과, 영상의학과, 한방내과, 한방부인과, 한방소아과, 한방안·이비인후·피부과, 한방신경정신과, 한방재활의학과",0,0,0
김포시,서울여성병원,20020618,"경기도 김포시 김포대로 829 (사우동, 서울여성병원)",경기도 김포시 사우동 917번지,10110,37.61880256,126.7212195,,영업중,,031-985-7582,,병원,175323.0372,457431.3489,병원,13,23,42,1959.22,110 104 116 109 115 111 108,"외과, 성형외과, 마취통증의학과, 산부인과, 소아청소년과, 비뇨의학과, 영상의학과",0,0,0
김포시,세인트힐병원,20160418,"경기도 김포시 돌문로 43, 4층 (사우동)",경기도 김포시 사우동 237번지 2호,10108,37.6188304,126.7178326,,영업중,,031-988-8275,,병원,175023.331,457434.6446,병원,25,27,128,2257.71,101 102 105 106 109 111 120 122,"가정의학과, 재활의학과, 소아청소년과, 마취통증의학과, 신경외과, 정형외과, 신경과, 내과",0,0,0
김포시,연세더바른병원,20191217,"경기도 김포시 김포한강4로 543, 지오프라자 3,4층 (구래동)","경기도 김포시 구래동 6879번지 5호 지오프라자 3,4층",10071,37.64524258,126.6235054,,영업중,,1833-8371,,병원,166708.6935,460397.294,병원,17,15,47,2522.74,116 105 101 109,"내과, 정형외과, 마취통증의학과, 영상의학과",0,0,0
김포시,연세유병원,20180719,"경기도 김포시 김포한강4로 531, 제이스프라자 7-8층 (구래동)",경기도 김포시 구래동 6879번지 2호,10071,37.6455171,126.624841,,영업중,,031-8049-7550,,병원,166825.0621,460425.2359,병원,10,13,44,1289.16,122 120 116 106 105 104 101,"내과, 외과, 정형외과, 신경외과, 영상의학과, 재활의학과, 가정의학과",0,0,0
김포시,연세하나병원,20200514,"경기도 김포시 김포대로 709, 퍼스트블루 2,3,4층 403~6호 (풍무동)",경기도 김포시 풍무동 252번지 4호 퍼스트블루,10113,37.61224881,126.7318454,,영업중,,1577-4558,,병원,176256.6359,456688.3303,병원,24,13,49,1739.57,116 106 105,"정형외과, 신경외과, 영상의학과",0,0,0
김포시,유앤제이병원,20170622,"경기도 김포시 양촌읍 양곡2로 30, 2,3층 (김포메디컬시티)",경기도 김포시 양촌읍 양곡리 1306번지 7호,10062,37.6540128,126.6275289,,영업중,,031-981-8114,,병원,167067.2146,461369.2351,병원,10,13,46,934.69,122 116 115 114 111 109 106 105 104 101,"내과, 외과, 정형외과, 신경외과, 마취통증의학과, 소아청소년과, 피부과, 비뇨의학과, 영상의학과, 가정의학과",0,0,0
김포시,의료법인동행의료재단보리수요양병원,20150619,"경기도 김포시 김포한강11로331번길 259, 보리수요양병원 (운양동)",경기도 김포시 운양동 829번지 3호 보리수요양병원,10072,37.6641315,126.6762805,,영업중,,031-986-0900,,요양병원(일반요양병원),171360,462495,요양병원(일반요양병원),35,38,180,4494.09,102 106 120 122 301 302 303 304 305 307 308,"신경과, 신경외과, 재활의학과, 가정의학과, 한방내과, 한방부인과, 한방소아과, 한방안·이비인후·피부과, 한방신경정신과, 사상체질과, 침구과",0,0,0
김포시,의료법인보성의료재단무의도한방병원,20060412,"경기도 김포시 통진읍 김포대로 2347-19, 무의도한방병원",경기도 김포시 통진읍 마송리 160번지 10호 무의도한방병원,10029,37.6949248,126.587038,,영업중,,031-999-2222,,한방병원,163514.4463,465925.2778,한방병원,8,36,78,2878.66,301 302 303 304 305 306 307 308,"한방내과, 한방부인과, 한방소아과, 한방안·이비인후·피부과, 한방신경정신과, 한방재활의학과, 사상체질과, 침구과",0,0,0
김포시,의료법인삼송의료재단 김포효병원,20050729,"경기도 김포시 봉화로130번길 50, 김포효병원 (북변동)",경기도 김포시 북변동 326-1번지 김포효병원,10106,37.6268568,126.7063268,,영업중,,031-985-6061,,요양병원(노인병원),174011.4808,458328.0909,요양병원(노인병원),14,17,110,1747.7,101 104 107 120 122 301,"내과, 외과, 흉부외과, 재활의학과, 가정의학과, 한방내과",0,0,0
김포시,의료법인우리의료재단김포우리병원,20020513,"경기도 김포시 감암로 11, 김포우리병원 (걸포동)",경기도 김포시 걸포동 389-15번지 김포우리병원,10099,37.63300101,126.7105518,,영업중,,031-999-1000,,종합병원,174399.7758,459029.2819,종합병원,439,103,385,18526.5,101 102 103 104 105 106 107 109 110 111 112 113 115 116 118 119 120 122 124 125 126 401 402,"내과, 신경과, 정신건강의학과, 외과, 정형외과, 신경외과, 흉부외과, 마취통증의학과, 산부인과, 소아청소년과, 안과, 이비인후과, 비뇨의학과, 영상의학과, 병리과, 진단검사의학과, 재활의학과, 가정의학과, 직업환경의학과, 응급의학과, 예방의학과, 치과, 구강악안면외과",0,0,0
김포시,의료법인인봉의료재단뉴고려병원,20090413,"경기도 김포시 김포한강3로 283, 뉴고려병원 (장기동)",경기도 김포시 장기동 1764번지 뉴고려병원,10086,37.64079539,126.6599994,,영업중,,031-998-8129,,종합병원,169927.5759,459889.7962,종합병원,258,87,297,14826.82,101 102 103 104 105 106 109 110 111 113 115 116 119 120 122 124 125 402,"내과, 신경과, 정신건강의학과, 외과, 정형외과, 신경외과, 마취통증의학과, 산부인과, 소아청소년과, 이비인후과, 비뇨의학과, 영상의학과, 진단검사의학과, 재활의학과, 가정의학과, 직업환경의학과, 응급의학과, 구강악안면외과",0,0,0
김포시,의료법인휘담메디의료재단하성한방병원,20090504,경기도 김포시 하성면 하성로 466-11 (하성한방병원),경기도 김포시 하성면 마곡리 541번지 3호,10012,37.71670168,126.6378212,,영업중,,031-999-6666,,한방병원,167997.2943,468307.9683,한방병원,4,12,40,1984.4,301 303 302 305 308 306 304 307,"한방내과, 한방부인과, 한방소아과, 한방안·이비인후·피부과, 한방신경정신과, 한방재활의학과, 사상체질과, 침구과",0,0,0
김포시,정근한방병원,20190118,"경기도 김포시 풍무로 176, 4-7층 (풍무동)",경기도 김포시 풍무동 35번지 15호,10113,37.61066673,126.7249989,,영업중,,031-984-8688,,한방병원,175653.3471,456527.5057,한방병원,1,22,80,1907.12,308 307 306 304 303 302 301 122 120 111 109 106 105 101,"내과, 정형외과, 신경외과, 마취통증의학과, 소아청소년과, 재활의학과, 가정의학과, 한방내과, 한방부인과, 한방소아과, 한방안·이비인후·피부과, 한방재활의학과, 사상체질과, 침구과",0,0,0
김포시,킴스한방병원,20190916,"경기도 김포시 전원로 11, 가든프라자 3,4,5층일부층 (운양동)",경기도 김포시 운양동 1427번지 2호 가든프라자,10077,37.64549515,126.681223,,영업중,,031-998-5689,,한방병원,171802.6963,460403.7091,한방병원,5,16,57,1615.95,308 307 306 305 304 303 302 301 122 120 114 113 111 105 101,"내과, 정형외과, 소아청소년과, 이비인후과, 피부과, 재활의학과, 가정의학과, 한방내과, 한방부인과, 한방소아과, 한방안·이비인후·피부과, 한방신경정신과, 한방재활의학과, 사상체질과, 침구과",0,0,0
김포시,한강아이제일병원,20170103,"경기도 김포시 김포한강11로 133, 중앙프라자 2,3,5층 (운양동)","경기도 김포시 운양동 1427-1번지 중앙프라자 2,3,5층",10077,37.64565769,126.6813583,,영업중,,031-8048-7575,,병원,171825,460434,병원,23,40,61,1578.72,101 105 111 113 114 116 118 119,"내과, 정형외과, 소아청소년과, 이비인후과, 피부과, 영상의학과, 병리과, 진단검사의학과",0,0,0
김포시,한강요양병원,20170928,"경기도 김포시 통진읍 조강로36번길 12-10, 가동",경기도 김포시 통진읍 서암리 714번지 65호 외 1필지,10018,37.68966603,126.6020784,,영업중,,031-981-7119,,요양병원(일반요양병원),164829.6198,465327.7698,요양병원(일반요양병원),11,35,182,4941.36,308 307 306 305 304 302 301 122 115 114 105 104 103 102 101,"내과, 신경과, 정신건강의학과, 외과, 정형외과, 피부과, 비뇨의학과, 가정의학과, 한방내과, 한방부인과, 한방안·이비인후·피부과, 한방신경정신과, 한방재활의학과, 사상체질과, 침구과",0,0,0
김포시,한별정신건강병원,19981126,경기도 김포시 감암로 95 (걸포동),경기도 김포시 걸포동 423번지 119호,10099,37.6394953,126.709109,,영업중,,031-986-9900,,요양병원(정신병원),174260.3054,459730.4286,요양병원(정신병원),13,28,130,2177.85,103 102,"신경과, 정신건강의학과",0,0,0
김포시,히즈메디병원,20190110,경기도 김포시 김포대로 681 (풍무동),경기도 김포시 풍무동 258번지 26호,10113,37.61104947,126.7346582,,영업중,,1588-0223,,병원,176507.5445,456566.253,병원,28,63,130,6562.85,122 116 114 113 111 110 109 106 105 104 103 101,"내과, 정신건강의학과, 외과, 정형외과, 신경외과, 마취통증의학과, 산부인과, 소아청소년과, 이비인후과, 피부과, 영상의학과, 가정의학과",0,0,0
남양주시,경기도립노인전문남양주병원,20100305,경기도 남양주시 수동면 외방로172번길 50,경기도 남양주시 수동면 외방리 172-3외5,12025,37.73851467,127.3093776,,영업중,,315905000,,요양병원(일반요양병원),227185,470724,요양병원(일반요양병원),29,49,246,8456.29,101 102 120 301 104 122,"가정의학과, 외과, 한방내과, 재활의학과, 신경과, 내과",0,0,0
남양주시,국민병원,20160826,경기도 남양주시 경춘로1308번길 4 (평내동),경기도 남양주시 평내동 200-1번지,12218,37.6500595,127.2382486,,영업중,,031-1877-7089,,병원,220953,460902,병원,25,41,200,5681,125 120 116 109 106 105 101,"내과, 정형외과, 신경외과, 마취통증의학과, 영상의학과, 재활의학과, 응급의학과",0,0,0
남양주시,남양주 한양병원,20090303,경기도 남양주시 오남읍 양지로 47-55,경기도 남양주시 오남읍 오남리 570번지,12048,37.68282672,127.2047508,,영업중,,031-510-0114,,종합병원,217945,464511,종합병원,126,86,240,22403.97,401 125 122 120 119 116 115 112 111 110 109 108 106 105 104 102 101,"내과, 신경과, 외과, 정형외과, 신경외과, 성형외과, 마취통증의학과, 산부인과, 소아청소년과, 안과, 비뇨의학과, 영상의학과, 진단검사의학과, 재활의학과, 가정의학과, 응급의학과, 치과",0,0,0
남양주시,남양주21세기병원,20120113,경기도 남양주시 진건읍 사릉로442번길 15,경기도 남양주시 진건읍 용정리 769번지 3호,12133,37.6587519,127.1771128,,영업중,,573-1114,,병원,215564.7514,461840.4526,병원,22,16,75,2118.85,101 104 105 106 116 120 114,"피부과, 재활의학과, 영상의학과, 신경외과, 정형외과, 외과, 내과",0,0,0
남양주시,남양주나눔병원,20070110,경기도 남양주시 오남읍 진건오남로797번길 9,경기도 남양주시 오남읍 양지리 104-2,12045,37.69791467,127.2013107,,영업중,,031-570-1000,,종합병원,217690.5039,466194.0295,종합병원,60,69,265,8728.4,125 120 119 116 115 113 111 110 109 107 106 105 104 102 101,"내과, 신경과, 외과, 정형외과, 신경외과, 흉부외과, 마취통증의학과, 산부인과, 소아청소년과, 이비인후과, 비뇨의학과, 영상의학과, 진단검사의학과, 재활의학과, 응급의학과",0,0,0
남양주시,남양주나무요양병원,20120503,"경기도 남양주시 평내로29번길 41, 메인프라자 9층 (평내동)",경기도 남양주시 평내동 578번지 3호 메인프라자,12223,37.6453361,127.2349138,,영업중,,511-5100,,요양병원(일반요양병원),220667.7942,460363.3436,요양병원(일반요양병원),17,15,85,2110,308 307 305 304 303 302 301 122 120 109 107 105 104 102 101,"내과, 신경과, 외과, 정형외과, 흉부외과, 마취통증의학과, 재활의학과, 가정의학과, 한방내과, 한방부인과, 한방소아과, 한방안·이비인후·피부과, 한방신경정신과, 사상체질과, 침구과",0,0,0
남양주시,남양주백병원,20041012,"경기도 남양주시 진접읍 해밀예당1로 30-25, 2층~10층",경기도 남양주시 진접읍 금곡리 1083번지 5호 2층~10층,12066,37.71119,127.1875897,,영업중,,031-572-3111,,병원,216475.6626,467663.5401,병원,29,33,109,5729,101 104 105 111 109,"마취통증의학과, 소아청소년과, 정형외과, 외과, 내과",0,0,0
남양주시,남양주정드림노인전문병원,20070906,경기도 남양주시 사릉로 13 (금곡동),경기도 남양주시 금곡동 404-257번지,12234,37.634504,127.2069764,,영업중,,031-511-8324,,요양병원(일반요양병원),218212,459159,요양병원(일반요양병원),11,13,144,2377.12,101 102 104 105 106 113 118 120 122 301 302 303 304 305 306 307 308,"침구과, 사상체질과, 한방재활의학과, 한방신경정신과, 한방안·이비인후·피부과, 한방소아과, 한방부인과, 한방내과, 가정의학과, 재활의학과, 병리과, 이비인후과, 신경외과, 정형외과, 외과, 신경과, 내과",0,0,0
남양주시,다산의료소비자생활협동조합정석소아청소년과병원,20131001,"경기도 남양주시 진접읍 해밀예당1로 221, 6,7,8층 (지안빌딩)","경기도 남양주시 진접읍 금곡리 1021번지 2호 지안빌딩6층,7층,8층",12054,37.72057152,127.2026641,,영업중,,031-573-6678,,병원,217803.6036,468707.5248,병원,13,28,53,1693.68,111 113,"이비인후과, 소아청소년과",0,0,0
남양주시,다산행복한방병원,20200410,"경기도 남양주시 다산중앙로145번길 15, 신해센트럴타워Ⅱ 3,10,11층 (다산동)",경기도 남양주시 다산동 6063번지 1호 신해센트럴타워Ⅱ,12248,37.62539092,127.150802,,영업중,,031-565-0035,,한방병원,,,한방병원,6,12,48,2151.3,308 306 304 303 302 301 122 114 113 111 105 101,"내과, 정형외과, 소아청소년과, 이비인후과, 피부과, 가정의학과, 한방내과, 한방부인과, 한방소아과, 한방안·이비인후·피부과, 한방재활의학과, 침구과",0,0,0
남양주시,마석기독요양병원,20160805,경기도 남양주시 화도읍 마석중앙로 46-1,경기도 남양주시 화도읍 창현리 493번지 6호,12179,37.6525568,127.3048312,,영업중,,031-511-5800,,요양병원(일반요양병원),226853.5167,461164.589,요양병원(일반요양병원),9,25,153,2644,308 307 306 305 304 303 302 301 122 120 115 114 111 101,"내과, 소아청소년과, 피부과, 비뇨의학과, 재활의학과, 가정의학과, 한방내과, 한방부인과, 한방소아과, 한방안·이비인후·피부과, 한방신경정신과, 한방재활의학과, 사상체질과, 침구과",0,0,0
남양주시,매그너스요양병원,20070508,경기도 남양주시 수동면 지둔로445번길 33-51 (매그너스요양병원),경기도 남양주시 수동면 지둔리 323번지 1호,12028,37.72171395,127.297966,,영업중,,031-595-0600,,요양병원(일반요양병원),226208.6371,468860.5521,요양병원(일반요양병원),24,41,201,4034.91,105 104 122 101 120 301 308,"침구과, 한방내과, 재활의학과, 내과, 가정의학과, 외과, 정형외과",0,0,0
남양주시,별내요양병원,20140228,"경기도 남양주시 별내2로 74, 5층,6층 (별내동, 별내동 JS타워)","경기도 남양주시 별내동 1008번지 2호 별내동 JS타워 5층,6층",12113,37.6468339,127.1254835,,영업중,,567-5100,,요양병원(일반요양병원),211009.0863,460510.855,요양병원(일반요양병원),19,26,157,2500.22,120 101 106 105 122 308,"침구과, 가정의학과, 정형외과, 신경외과, 내과, 재활의학과",0,0,0
남양주시,비오람요양병원,20170306,경기도 남양주시 진접읍 해밀예당2로 217-38,경기도 남양주시 진접읍 금곡리 594-33번지,12062,37.72107148,127.2105257,,영업중,,574-1100,,요양병원(일반요양병원),218504,468770,요양병원(일반요양병원),7,36,131,4028.74,301 122 117 110 108 101,"내과, 성형외과, 산부인과, 방사선종양학과, 가정의학과, 한방내과",0,0,0
남양주시,새봄요양병원,20120717,경기도 남양주시 오남읍 진건오남로884번길 22-20,경기도 남양주시 오남읍 양지리 193번지 8호,12036,37.7053509,127.199278,,영업중,,573-0500,,요양병원(일반요양병원),217508.8618,467017.8052,요양병원(일반요양병원),9,30,150,2983.61,308 307 306 305 304 303 302 301 122 120 102 101,"내과, 신경과, 재활의학과, 가정의학과, 한방내과, 한방부인과, 한방소아과, 한방안·이비인후·피부과, 한방신경정신과, 한방재활의학과, 사상체질과, 침구과",0,0,0
남양주시,서울특별시축령정신병원,19970507,경기도 남양주시 수동면 외방로172번길 58,경기도 남양주시 수동면 외방리 174-5,12025,37.7384676,127.3101261,,영업중,,031-592-6661,,요양병원(정신병원),227233,470791,요양병원(정신병원),17,33,264,5260.11,103,정신건강의학과,0,0,0
남양주시,수동연세요양병원,20080226,경기도 남양주시 수동면 비룡로 801-88,경기도 남양주시 수동면 운수리 361-6,12031,37.71010703,127.319796,,영업중,,031-594-8007,,요양병원(일반요양병원),228150,467555,요양병원(일반요양병원),29,64,258,4759.3,308 307 306 305 304 303 302 301 122 120 114 106 105 104 102 101,"내과, 신경과, 외과, 정형외과, 신경외과, 피부과, 재활의학과, 가정의학과, 한방내과, 한방부인과, 한방소아과, 한방안·이비인후·피부과, 한방신경정신과, 한방재활의학과, 사상체질과, 침구과",0,0,0
남양주시,실버힐스병원,20091130,"경기도 남양주시 경춘로 1260 (평내동, 하나프라자 5층)",경기도 남양주시 평내동 579 하나프라자 5층,12223,37.6466158,127.2347478,,영업중,,511-9494,,병원,220652.1249,460505.0174,병원,12,25,148,2108,101 122 102 103 301 308,"침구과, 한방내과, 정신건강의학과, 신경과, 가정의학과, 내과",0,0,0
남양주시,아이맘어린이병원,20190604,"경기도 남양주시 다산중앙로 105-8, 다산동 3~5층 (다산동)",경기도 남양주시 다산동 6088번지 3호,12248,37.6227103,127.1529014,,영업중,,031-563-9999,,병원,,,병원,9,30,55,1913.19,114 113 112 111 101,"내과, 소아청소년과, 안과, 이비인후과, 피부과",0,0,0
남양주시,양병원,19961031,경기도 남양주시 경춘로 933 (금곡동),"경기도 남양주시 금곡동 433번지 5호 431-8번지(1층 일부,2층,3층)",12234,37.63344403,127.2051383,,영업중,,031-590-9220,,병원,218043.2377,459036.8425,병원,46,19,50,5790.62,101 104 116 109 122 110 401,"치과, 산부인과, 가정의학과, 마취통증의학과, 영상의학과, 외과, 내과",0,0,0
남양주시,에덴요양병원,20010703,경기도 남양주시 수동면 비룡로1782번길 160,경기도 남양주시 수동면 내방리 380 외1필지,12024,37.77078956,127.2903749,,영업중,,031-590-7575,,요양병원(일반요양병원),225544,474353,요양병원(일반요양병원),35,73,191,8505,122 120 115 114 106 105 104 101,"내과, 외과, 정형외과, 신경외과, 피부과, 비뇨의학과, 재활의학과, 가정의학과",0,0,0
남양주시,온세병원,20101012,"경기도 남양주시 평내로29번길 49, 10층 (평내동, M2프라자)",경기도 남양주시 평내동 579번지 3호 M2프라자 10층,12223,37.6457762,127.2355837,,영업중,,594-7912,,병원,220727.0079,460412.8067,병원,14,16,138,1440.34,101 111 122 103 102,"신경과, 정신건강의학과, 가정의학과, 소아청소년과, 내과",0,0,0
남양주시,원병원,19970315,경기도 남양주시 화도읍 경춘로 1943-16,경기도 남양주시 화도읍 창현리 495번지 3호,12179,37.6519453,127.3043528,,영업중,,031-590-3114,,병원,226793.0761,461115.826,병원,27,43,151,9993.84,122 119 116 111 110 109 106 105 104 102 101,"내과, 신경과, 외과, 정형외과, 신경외과, 마취통증의학과, 산부인과, 소아청소년과, 영상의학과, 진단검사의학과, 가정의학과",0,0,0
남양주시,의료법인다원의료재단 진접제일요양병원,20170215,경기도 남양주시 진접읍 광릉내로 99 (진접제일요양병원),경기도 남양주시 진접읍 팔야리 728-8번지 진접제일요양병원,12019,37.74618253,127.2045256,,영업중,,573-3004,,요양병원(일반요양병원),218007,471536,요양병원(일반요양병원),16,44,270,6784.22,301 122 120 111 105 104 102 101,"내과, 신경과, 외과, 정형외과, 소아청소년과, 재활의학과, 가정의학과, 한방내과",0,0,0
남양주시,의료법인혜수의료재단베리굿병원,20130801,"경기도 남양주시 별내5로5번길 5, 지앤지프라자 3~7층 (별내동)",경기도 남양주시 별내동 1097번지 5호 지앤지프라자,12102,37.6498284,127.1130918,,영업중,,567-8585,,병원,209916.2503,460844.8484,병원,17,14,55,2323.86,122 116 111 109 106 105 104 102 101,"내과, 신경과, 외과, 정형외과, 신경외과, 마취통증의학과, 소아청소년과, 영상의학과, 가정의학과",0,0,0
남양주시,축령복음병원,19860424,경기도 남양주시 수동면 외방로172번길 58,경기도 남양주시 수동면 외방리 174-3,12025,37.7384676,127.3101261,,영업중,,031-592-6661,,요양병원(정신병원),227233,470791,요양병원(정신병원),14,32,191,3994.67,103,정신건강의학과,0,0,0
남양주시,퇴계원 서울요양병원,20130411,경기도 남양주시 퇴계원면 도제원로 32,경기도 남양주시 퇴계원면 퇴계원리 249번지 4호 외2필지,12125,37.6508575,127.1449012,,영업중,,031-529-8188,,요양병원(일반요양병원),212723.1848,460962.3851,요양병원(일반요양병원),34,43,199,3745,308 307 306 305 304 303 302 301 122 120 106 104 101,"내과, 외과, 신경외과, 재활의학과, 가정의학과, 한방내과, 한방부인과, 한방소아과, 한방안·이비인후·피부과, 한방신경정신과, 한방재활의학과, 사상체질과, 침구과",0,0,0
남양주시,필립요양병원,20170919,"경기도 남양주시 경춘로1308번길 2, 3~7층 (평내동)",경기도 남양주시 평내동 200번지 4호,12218,37.6499971,127.2379198,,영업중,,1877-7504,,요양병원(일반요양병원),220931.8357,460883.5427,요양병원(일반요양병원),6,29,137,3031.69,122 120 114 109 106 105 104 102 101,"내과, 신경과, 외과, 정형외과, 신경외과, 마취통증의학과, 피부과, 재활의학과, 가정의학과",0,0,0
남양주시,하나소아청소년과병원,20111202,"경기도 남양주시 늘을1로16번길 25, 성보빌딩 4층, 10층층 (호평동)","경기도 남양주시 호평동 638번지 성보빌딩 4층, 10층",12149,37.65399659,127.2428279,,영업중,,031 -593- 1140,,병원,221365.0193,461326.7616,병원,15,25,44,1464.73,111,소아청소년과,0,0,0
남양주시,한누리요양병원,20080527,경기도 남양주시 화도읍 먹갓로27번길 17-18,경기도 남양주시 화도읍 묵현리 408번지 1호,12169,37.65580317,127.2739637,,영업중,,031-593-6833,,요양병원(일반요양병원),224109.7858,461515.1277,요양병원(일반요양병원),27,30,193,3636.78,101 104 105 102 113 114 115 122 301,"한방내과, 가정의학과, 비뇨의학과, 피부과, 이비인후과, 신경과, 정형외과, 외과, 내과",0,0,0
남양주시,햇살요양병원,20080828,경기도 남양주시 마치로 90 (호평동),경기도 남양주시 호평동 23번지 21호,12155,37.6527491,127.2618274,,영업중,,031-559-0095,,요양병원(일반요양병원),223041.4574,461194.2898,요양병원(일반요양병원),25,25,146,2735.06,101 120 122 111 301 308 104,"외과, 침구과, 한방내과, 소아청소년과, 가정의학과, 재활의학과, 내과",0,0,0
남양주시,현대병원,20090901,경기도 남양주시 진접읍 봉현로 21,경기도 남양주시 진접읍 장현리 663번지,12013,37.71543605,127.1799592,,영업중,,031-574-9118~9,,종합병원,215776.7798,468132.8218,종합병원,124,94,325,13624.32,406 125 120 119 118 116 115 113 111 110 109 106 105 104 103 102 101,"내과, 신경과, 정신건강의학과, 외과, 정형외과, 신경외과, 마취통증의학과, 산부인과, 소아청소년과, 이비인후과, 비뇨의학과, 영상의학과, 병리과, 진단검사의학과, 재활의학과, 응급의학과, 치주과",0,0,0
남양주시,호평요양병원,20090313,"경기도 남양주시 늘을2로14번길 5, 7층 일부, 9층 (호평동, 샤르망메디칼프라자)","경기도 남양주시 호평동 641번지 1호 샤르망메디칼프라자, 7층 일부, 9층",12150,37.6540292,127.2444938,,영업중,,559-8700,,요양병원(일반요양병원),221512.0034,461332.0152,요양병원(일반요양병원),19,23,111,1889.76,122 109 120 301,"한방내과, 재활의학과, 마취통증의학과, 가정의학과",0,0,0
남양주시,휴메디병원,20151130,"경기도 남양주시 진접읍 금강로1521번길 1, 2,3,4층",경기도 남양주시 진접읍 장현리 68번지 5호,12009,37.72613039,127.1917557,,영업중,,554-8899,,병원,216840.9714,469322.6729,병원,12,16,89,1849.5,308 306 304 303 302 301 122 120 114 111 109 102 101,"내과, 신경과, 마취통증의학과, 소아청소년과, 피부과, 재활의학과, 가정의학과, 한방내과, 한방부인과, 한방소아과, 한방안·이비인후·피부과, 한방재활의학과, 침구과",0,0,0
남양주시,힐링웰요양병원,20160613,"경기도 남양주시 호평로46번길 14, 4~5층 (호평동, ZENEW빌딩)",경기도 남양주시 호평동 642-3번지 ZENEW빌딩 4~5층,12150,37.6544435,127.2445518,,영업중,,031-595-0055,,요양병원(일반요양병원),221532,461406,요양병원(일반요양병원),15,36,178,2745.55,308 307 306 305 304 302 301 122 120 107 106 105 104 103 102 101,"내과, 신경과, 정신건강의학과, 외과, 정형외과, 신경외과, 흉부외과, 재활의학과, 가정의학과, 한방내과, 한방부인과, 한방안·이비인후·피부과, 한방신경정신과, 한방재활의학과, 사상체질과, 침구과",0,0,0
동두천시,경기도립노인전문동두천병원,20071120,경기도 동두천시 탑신로 536 (탑동동),경기도 동두천시 탑동동 140-5번지,11322,37.90087146,127.1360711,,영업중,,031-860-4114,,요양병원(노인병원),211904.1053,488709.8055,요양병원(노인병원),46,38,199,7746.26,101 102 104 120 301,"내과, 신경과, 외과, 재활의학과, 한방내과",0,0,0
동두천시,동두천의료소비자생활협동조합 우리들요양병원,20160923,경기도 동두천시 삼육사로 747 (상패동),경기도 동두천시 상패동 201번지 19호,11335,37.90824075,127.0359601,,영업중,,031-861-5733,,요양병원(일반요양병원),205507.8443,492405.979,요양병원(일반요양병원),7,18,78,2245.5,308 307 306 305 304 303 302 301 122 120 115 114 113 110 104 102 101,"내과, 신경과, 외과, 산부인과, 이비인후과, 피부과, 비뇨의학과, 재활의학과, 가정의학과, 한방내과, 한방부인과, 한방소아과, 한방안·이비인후·피부과, 한방신경정신과, 한방재활의학과, 사상체질과, 침구과",0,0,0
동두천시,동두천제일요양병원,20070614,"경기도 동두천시 광암로 7, 동두천제일요양병원 (광암동)",경기도 동두천시 광암동 481번지 3호 동두천제일요양병원,11321,37.89490776,127.0826332,,영업중,,031-860-8800,,요양병원(일반요양병원),207195.3521,488039.1649,요양병원(일반요양병원),32,46,288,5874.8,301 122 110 106 104 101,"내과, 외과, 신경외과, 산부인과, 가정의학과, 한방내과",0,0,0
동두천시,동두천중앙성모병원,20070831,경기도 동두천시 동광로 53 (생연동),경기도 동두천시 생연동 577-4번지,11326,37.90901815,127.0539041,,영업중,,031-863-0550,,병원,,,병원,47,37,172,6221.5,125 122 116 115 114 113 112 111 109 108 106 105 104 102 101,"내과, 신경과, 외과, 정형외과, 신경외과, 성형외과, 마취통증의학과, 소아청소년과, 안과, 이비인후과, 피부과, 비뇨의학과, 영상의학과, 가정의학과, 응급의학과",0,0,0
동두천시,동원노인전문병원,20011126,경기도 동두천시 탑신로 522 (탑동동),경기도 동두천시 탑동동 149번지,11322,37.90005265,127.1360897,,영업중,,031-867-4776,,요양병원(노인병원),211954.3191,488639.4467,요양병원(노인병원),28,31,177,3321.46,101 102 103 104 122 301,"한방내과, 가정의학과, 외과, 정신건강의학과, 신경과, 내과",0,0,0
동두천시,동원병원,19950426,경기도 동두천시 탑신로 522 (탑동동),경기도 동두천시 탑동동 149번지,11322,37.90005265,127.1360897,,영업중,,031-870-0701,,요양병원(정신병원),211954.3191,488639.4467,요양병원(정신병원),16,50,284,3675.05,103,정신건강의학과,0,0,0
동두천시,로젠요양병원,20120605,경기도 동두천시 삼육사로 1012 (생연동),경기도 동두천시 생연동 307-13번지,11359,37.89922082,127.0628452,,영업중,,031-857-9933,,요양병원(일반요양병원),205516.1433,488816.0862,요양병원(일반요양병원),18,31,174,4795.69,101 102 103 104 105 106 111 114 115 120 122 301 308,"침구과, 한방내과, 가정의학과, 재활의학과, 비뇨의학과, 피부과, 소아청소년과, 신경외과, 정형외과, 외과, 정신건강의학과, 신경과, 내과",0,0,0
동두천시,로하스요양병원,20150610,"경기도 동두천시 평화로2169번길 24, 로하스요양병원 (송내동)",경기도 동두천시 송내동 673번지 4호 로하스요양병원,11354,37.8814679,127.0533167,,영업중,,031-867-8275,,요양병원(일반요양병원),204627.8131,486550.1104,요양병원(일반요양병원),28,33,196,4435.87,101 102 104 105 106 113 120 122 301 308,"침구과, 한방내과, 가정의학과, 재활의학과, 이비인후과, 신경외과, 정형외과, 외과, 신경과, 내과",0,0,0
동두천시,서울요양병원,20110914,경기도 동두천시 천보산로 504 (탑동동),경기도 동두천시 탑동동 651-2번지,11360,37.88016699,127.1016128,,영업중,,031-863-0900,,요양병원(일반요양병원),208935.4935,486709.897,요양병원(일반요양병원),31,53,299,9009.65,101 102 105 106 110 120 122 301 302 306 308,"침구과, 한방재활의학과, 한방부인과, 한방내과, 가정의학과, 재활의학과, 산부인과, 신경외과, 정형외과, 신경과, 내과",0,0,0
동두천시,성지요양병원,20070523,경기도 동두천시 광암로17번길 10 (광암동),경기도 동두천시 광암동 486-4,11321,37.89601907,127.0836708,,영업중,,031-860-9000,,요양병원(일반요양병원),207295.0368,488165.7977,요양병원(일반요양병원),18,28,165,5397.29,301 122 120 114 106 105 104 101,"내과, 외과, 정형외과, 신경외과, 피부과, 재활의학과, 가정의학과, 한방내과",0,0,0
동두천시,힐링탑요양병원,20150323,경기도 동두천시 강변로 422 (생연동),경기도 동두천시 생연동 826번지 11호,11327,37.90685995,127.0510558,,영업중,,031-864-9200,,요양병원(일반요양병원),204419.043,489350.8351,요양병원(일반요양병원),17,38,197,4024.99,308 301 122 106 104 101,"내과, 외과, 신경외과, 가정의학과, 한방내과, 침구과",0,0,0
부천시,(재)대성재단 대성제일요양병원,20130726,경기도 부천시 부흥로373번길 18 (심곡동),경기도 부천시 심곡동 104번지 외 4필지 3층,14578,37.49209502,126.7838311,,영업중,,032-610-1330,,요양병원(일반요양병원),180811,443354,요양병원(일반요양병원),7,14,43,686.39,101 122,"내과, 가정의학과",0,0,0
부천시,가은병원,20021115,"경기도 부천시 마니로24번길 43-17 (송내동, 가은병원A동)",경기도 부천시 송내동 676번지 6호 가은병원A동,14746,37.47759647,126.7689164,,영업중,,032-667-0114,,요양병원(노인병원),179493.5305,441746.9379,요양병원(노인병원),96,117,429,10954.15,101 102 103 120 122 301 302 305 306 307 308,"내과, 신경과, 정신건강의학과, 재활의학과, 가정의학과, 한방내과, 한방부인과, 한방신경정신과, 한방재활의학과, 사상체질과, 침구과",0,0,0
부천시,가톨릭대학교부천성모병원,19831108,"경기도 부천시 소사로 327, 가톨릭대학교 부천성모병원 (소사동)",경기도 부천시 소사동 2번지 가톨릭대학교 부천성모병원,14647,37.48749803,126.7930296,,영업중,,032-1577-0675,,종합병원,181689,442814,종합병원,1073,197,644,58042.87,404 402 125 123 120 119 118 117 116 115 114 113 112 111 110 109 108 107 106 105 104 103 102 101,"내과, 신경과, 정신건강의학과, 외과, 정형외과, 신경외과, 흉부외과, 성형외과, 마취통증의학과, 산부인과, 소아청소년과, 안과, 이비인후과, 피부과, 비뇨의학과, 영상의학과, 방사선종양학과, 병리과, 진단검사의학과, 재활의학과, 핵의학과, 응급의학과, 구강악안면외과, 치과교정과",0,0,0
부천시,경기요양병원,20070912,"경기도 부천시 부천로 44, 지하1층 일부,1층일부,2~4층호 (심곡동)",경기도 부천시 심곡동 161번지 6호,14641,37.48817584,126.7839104,,영업중,,351-2141,,요양병원(일반요양병원),180822.6599,442917.3285,요양병원(일반요양병원),24,35,199,2689.33,301 306 302 303 305 308 304 101 104 105 111 113,"내과, 외과, 정형외과, 소아청소년과, 이비인후과, 한방내과, 한방부인과, 한방소아과, 한방안·이비인후·피부과, 한방신경정신과, 한방재활의학과, 침구과",0,0,0
부천시,고려수재활요양병원,20070528,경기도 부천시 부일로 504 (심곡동),경기도 부천시 심곡동 145-1번지,14643,37.48514,126.7861182,,영업중,,323472300,,요양병원(일반요양병원),181014.074,442573.902,요양병원(일반요양병원),42,45,200,4356.48,101 104 105 106 115 120 301 302 303 304 305 306 307 308,"내과, 외과, 정형외과, 신경외과, 비뇨의학과, 재활의학과, 한방내과, 한방부인과, 한방소아과, 한방안·이비인후·피부과, 한방신경정신과, 한방재활의학과, 사상체질과, 침구과",0,0,0
부천시,고운여성병원,20070222,"경기도 부천시 부천로 110-1, 2~6층 (원미동)",경기도 부천시 원미동 111-3번지,14569,37.49405881,126.7853659,,영업중,,326650070,,병원,180952.9095,443563.0645,병원,7,21,40,1639.03,110 111 101 104 114 108,"내과, 외과, 성형외과, 산부인과, 소아청소년과, 피부과",0,0,0
부천시,다솜요양병원,20070409,"경기도 부천시 삼작로 286, 1,3,4,5층 (도당동)",경기도 부천시 도당동 117번지,14483,37.51993199,126.7936064,,영업중,,677-4119,,요양병원(일반요양병원),181676,446453,요양병원(일반요양병원),26,22,153,2696.8,308 306 305 304 303 302 301 122 120 115 114 113 111 106 105 104 101,"내과, 외과, 정형외과, 신경외과, 소아청소년과, 이비인후과, 피부과, 비뇨의학과, 재활의학과, 가정의학과, 한방내과, 한방부인과, 한방소아과, 한방안·이비인후·피부과, 한방신경정신과, 한방재활의학과, 침구과",0,0,0
부천시,다온요양병원,20180730,"경기도 부천시 장말로 192, 바로빌딩,지하1층,2~7층 (상동)",경기도 부천시 상동 235번지 1호 바로빌딩 지하1층 2~7층,14618,37.49267652,126.7631364,,영업중,,032-612-5500,,요양병원(일반요양병원),178988.4449,443422.4539,요양병원(일반요양병원),30,46,218,3724.62,308 302 301 122 120 110 106 105 104 102 101,"내과, 신경과, 외과, 정형외과, 신경외과, 산부인과, 재활의학과, 가정의학과, 한방내과, 한방부인과, 침구과",0,0,0
부천시,더블유진병원,20100712,"경기도 부천시 신흥로 244, 지하1층,1~5층 (중동)",경기도 부천시 중동 1061-4번지,14534,37.50528864,126.7759324,,영업중,,032-321-1433,,요양병원(정신병원),180124.2558,444818.5569,요양병원(정신병원),11,38,172,2782.9,122 111 103 101,"내과, 정신건강의학과, 소아청소년과, 가정의학과",0,0,0
부천시,더편한소사요양병원,20170811,"경기도 부천시 소사로 236, 이레빌딩 1층일부,4층일부,5층,6층 (소사본동)","경기도 부천시 소사본동 126번지 22호 이레빌딩 1층일부,4층일부,5층,6층",14694,37.47915125,126.7957737,,영업중,,032-349-8090,,요양병원(일반요양병원),181869.2015,441915.1167,요양병원(일반요양병원),27,32,236,2185.85,308 307 306 305 304 303 302 301 125 122 120 115 114 113 112 110 107 106 105 104 103 102 101,"내과, 신경과, 정신건강의학과, 외과, 정형외과, 신경외과, 흉부외과, 산부인과, 안과, 이비인후과, 피부과, 비뇨의학과, 재활의학과, 가정의학과, 응급의학과, 한방내과, 한방부인과, 한방소아과, 한방안·이비인후·피부과, 한방신경정신과, 한방재활의학과, 사상체질과, 침구과",0,0,0
부천시,도담한방병원,20200108,"경기도 부천시 상동로 90, 메가플러스빌딩 14층 1401호 (상동)",경기도 부천시 상동 541번지 1호 메가플러스빌딩 1401호,14545,37.50513002,126.7537282,,영업중,,032-327-0600,,한방병원,178156.5603,444798.494,한방병원,7,17,58,1325.06,308 307 306 305 304 303 302 301 105,"정형외과, 한방내과, 한방부인과, 한방소아과, 한방안·이비인후·피부과, 한방신경정신과, 한방재활의학과, 사상체질과, 침구과",0,0,0
부천시,디딤병원,20181203,"경기도 부천시 부천로29번길 7, 부천메디컬프라자 5~10층 (심곡동)",경기도 부천시 심곡동 177번지 1호 부천메디컬프라자 5~10층,14634,37.48682256,126.7829419,,영업중,,326660777,,병원,180737.1895,442766.4117,병원,20,18,55,1961.11,126 125 122 120 119 118 116 114 113 111 110 109 106 105 104 103 102 101,"내과, 신경과, 정신건강의학과, 외과, 정형외과, 신경외과, 마취통증의학과, 산부인과, 소아청소년과, 이비인후과, 피부과, 영상의학과, 병리과, 진단검사의학과, 재활의학과, 가정의학과, 응급의학과, 예방의학과",0,0,0
부천시,로하스부천요양병원,20131106,"경기도 부천시 소사로 80, 한일프라자 2~6층 (소사본동)",경기도 부천시 소사본동 404번지 4호 한일프라자 2~6층,14774,37.4659033,126.799077,,영업중,,032-3456-888,,요양병원(일반요양병원),182152,440452,요양병원(일반요양병원),13,19,110,1641,101 104 122 110 105 106 120 301 308 307 306,"내과, 외과, 정형외과, 신경외과, 산부인과, 재활의학과, 가정의학과, 한방내과, 한방재활의학과, 사상체질과, 침구과",0,0,0
부천시,루카스병원,20110617,"경기도 부천시 경인로 88, 지하1,1층,3~6층 (송내동)",경기도 부천시 송내동 389-2번지,14727,37.48359485,126.7649139,,영업중,,032-310-0100,,요양병원(정신병원),179139.7689,442400.9701,요양병원(정신병원),27,49,280,4716,308 307 306 305 302 301 122 120 116 103 102 101,"내과, 신경과, 정신건강의학과, 영상의학과, 재활의학과, 가정의학과, 한방내과, 한방부인과, 한방신경정신과, 한방재활의학과, 사상체질과, 침구과",0,0,0
부천시,메르덴치과병원,20070220,"경기도 부천시 상동로 69, 403호 (상동, 새롬프라자)",경기도 부천시 상동 544-11번지 새롬프라자 403호,14544,37.50384365,126.7519722,,영업중,,323282875,,치과병원,178017,444637,치과병원,1,0,0,337.78,401,치과,0,0,0
부천시,메이플요양병원,20150526,경기도 부천시 평천로 724 (삼정동),경기도 부천시 삼정동 342-2번지,14516,37.51478461,126.7710512,,영업중,,032-715-7611,,요양병원(일반요양병원),179694.1815,445874.2587,요양병원(일반요양병원),22,18,166,2099.04,106 101 120 104 105 122 301 308,"내과, 외과, 정형외과, 신경외과, 재활의학과, 가정의학과, 한방내과, 침구과",0,0,0
부천시,바오로요양병원,20101101,"경기도 부천시 부일로 448, 프리존 빌딩 6,7층 601,607,608,701,707,708호 (심곡동)","경기도 부천시 심곡동 383번지 8호 프리존 빌딩 6층(601,607,608호), 7층(701,707,708호)",14637,37.48598738,126.7801944,,영업중,,032-663-9290,,요양병원(일반요양병원),180480.7346,442665.8176,요양병원(일반요양병원),7,38,186,3007.68,301 122 120 114 113 101,"내과, 이비인후과, 피부과, 재활의학과, 가정의학과, 한방내과",0,0,0
부천시,보성요양병원,20141217,"경기도 부천시 소사로 742, 세라메디컬센터 지하1층일부,2층,3층일부,4~6층 (원종동)","경기도 부천시 원종동 281번지 6호 세라메디컬센터 지하1층일부,2층,3층일부,4~6층",14424,37.5222346,126.8051229,,영업중,,032-683-0004,,요양병원(일반요양병원),182707.4482,446692.9192,요양병원(일반요양병원),35,36,225,3991.88,101 104 122 102 106 105 120 301 303 304 302 308 305,"내과, 신경과, 외과, 정형외과, 신경외과, 재활의학과, 가정의학과, 한방내과, 한방부인과, 한방소아과, 한방안·이비인후·피부과, 한방신경정신과, 침구과",0,0,0
부천시,본드림병원,20121129,"경기도 부천시 소사로 236, 2,3층 (소사본동)",경기도 부천시 소사본동 126번지,14694,37.47931315,126.7959456,,영업중,,032-343-8275,,병원,181867,441931,병원,7,13,76,2452,122 116 109 106 105 101,"내과, 정형외과, 신경외과, 마취통증의학과, 영상의학과, 가정의학과",0,0,0
부천시,부천21세기병원,20100524,"경기도 부천시 경인로 180, 2층,3층 (심곡본동)","경기도 부천시 심곡본동 560-9번지 2층,3층",14725,37.48357697,126.7751503,,영업중,,032-1577-7521,,병원,180073,442414,병원,34,17,57,2706,116 109 106 105 104,"외과, 정형외과, 신경외과, 마취통증의학과, 영상의학과",0,0,0
부천시,부천당당양한방병원,20160902,"경기도 부천시 석천로177번길 39, 3층,9층,10층 (중동, 미라클타워)",경기도 부천시 중동 1167번지 1호 미라클타워,14546,37.50337091,126.7606584,,영업중,,032-324-1500,,한방병원,178766.2928,444599.4708,한방병원,7,17,69,1365.84,308 306 305 304 303 302 301 122 120 106 105 102 101,"내과, 신경과, 정형외과, 신경외과, 재활의학과, 가정의학과, 한방내과, 한방부인과, 한방소아과, 한방안·이비인후·피부과, 한방신경정신과, 한방재활의학과, 침구과",0,0,0
부천시,부천대성병원,19840308,"경기도 부천시 부천로 91 (심곡동, 부천대성병원)",경기도 부천시 심곡동 110-6번지,14577,37.49254646,126.7841925,,영업중,,032-652-0141,,종합병원,180844.4629,443383.0724,종합병원,31,56,202,9886,124 119 116 114 113 110 109 106 105 104 101,"내과, 외과, 정형외과, 신경외과, 마취통증의학과, 산부인과, 이비인후과, 피부과, 영상의학과, 진단검사의학과, 직업환경의학과",0,0,0
부천시,부천미소요양병원,20100106,경기도 부천시 석천로178번길 18 (중동),경기도 부천시 중동 1159번지 2호,14547,37.50296638,126.7637171,,영업중,,032-325-7911,,요양병원(일반요양병원),179037.1178,444554.0909,요양병원(일반요양병원),24,24,186,2960.68,101 102 104 105 106 111 112 113 114 115 116 119 120 122 301 305 306 308,"내과, 신경과, 외과, 정형외과, 신경외과, 소아청소년과, 안과, 이비인후과, 피부과, 비뇨의학과, 영상의학과, 진단검사의학과, 재활의학과, 가정의학과, 한방내과, 한방신경정신과, 한방재활의학과, 침구과",0,0,0
부천시,부천사랑병원,19990716,"경기도 부천시 장말로 373, 한국몬테소리빌딩 지하1층,1층일부,2~7층 (심곡동)","경기도 부천시 심곡동 365번지 1호 한국몬테소리빌딩 지하1층,1층일부,2~7층",14630,37.490271,126.7835242,,영업중,,032-678-0114,,요양병원(정신병원),180948.5305,445100.049,요양병원(정신병원),22,44,270,4455.54,103 102,"신경과, 정신건강의학과",0,0,0
부천시,부천삼성요양병원,20170102,"경기도 부천시 부일로 522, 1층~8층 (심곡동, 일죽스포렉스빌딩)",경기도 부천시 심곡동 129번지 3호,14643,37.48488961,126.7879416,,영업중,,032-721-7577,,요양병원(일반요양병원),181174.5654,442544.2545,요양병원(일반요양병원),39,41,240,4622.91,308 306 301 122 120 110 109 107 106 105 104 102 101,"내과, 신경과, 외과, 정형외과, 신경외과, 흉부외과, 마취통증의학과, 산부인과, 재활의학과, 가정의학과, 한방내과, 한방재활의학과, 침구과",0,0,0
부천시,부천서울어린이병원,20120316,"경기도 부천시 송내대로265번길 19, 4,5층 (상동, 대신프라자)",경기도 부천시 상동 538-3번지,14542,37.50639674,126.7578335,,영업중,,1600-3875,,병원,178522.4413,444945.7547,병원,16,30,52,1494.52,122 119 118 116 115 114 113 112 111 105 104 102 101,"내과, 신경과, 외과, 정형외과, 소아청소년과, 안과, 이비인후과, 피부과, 비뇨의학과, 영상의학과, 병리과, 진단검사의학과, 가정의학과",0,0,0
부천시,부천수림한방병원,20090701,"경기도 부천시 역곡로14번길 42, 2층 (역곡동)",경기도 부천시 역곡동 111-2번지,14670,37.48692948,126.8134587,,영업중,,032-341-3344,,한방병원,183436.883,442773.3298,한방병원,5,8,31,480.85,301 304 307 302 305 308 303 306,"한방내과, 한방부인과, 한방소아과, 한방안·이비인후·피부과, 한방신경정신과, 한방재활의학과, 사상체질과, 침구과",0,0,0
부천시,부천시립노인전문병원,20100310,경기도 부천시 까치로 26 (작동),경기도 부천시 작동 405번지,14478,37.50909456,126.8083245,,영업중,,032-713-7300,,요양병원(일반요양병원),182964,445216,요양병원(일반요양병원),42,51,243,11764.12,122 120 103 102 101,"내과, 신경과, 정신건강의학과, 재활의학과, 가정의학과",0,0,0
부천시,부천요양병원,20090701,경기도 부천시 길주로 321 (중동),경기도 부천시 중동 1080번지,14534,37.50322928,126.7785694,,영업중,,032-1588-2890,,요양병원(일반요양병원),180344,444589,요양병원(일반요양병원),43,51,243,4955.86,101 104 120 301,"내과, 외과, 재활의학과, 한방내과",0,0,0
부천시,부천우리병원,20070416,"경기도 부천시 소사로 726, 지하4층~지상5층 (원종동)",경기도 부천시 원종동 373번지,14466,37.52085702,126.805197,,영업중,,032-672-4100,,종합병원,182712.0405,446922.3245,종합병원,68,34,120,8097.48,408 122 119 116 115 110 109 105 104 102 101,"내과, 신경과, 외과, 정형외과, 마취통증의학과, 산부인과, 비뇨의학과, 영상의학과, 진단검사의학과, 가정의학과, 구강내과",0,0,0
부천시,부천제일요양병원,20130304,"경기도 부천시 부천로 100, 지하1층,2~8층 (원미동)","경기도 부천시 원미동 134-3번지 (지하1, 지상2,3,4,5,6,7,8층)",14570,37.49303843,126.7850588,,영업중,,650-9000,,요양병원(일반요양병원),180920.1861,443445.9712,요양병원(일반요양병원),24,26,194,3304.95,105 101 104 122 102 109 120 308 301 306,"내과, 신경과, 외과, 정형외과, 마취통증의학과, 재활의학과, 가정의학과, 한방내과, 한방재활의학과, 침구과",0,0,0
부천시,부천중앙병원,20090312,"경기도 부천시 소사로 797 (원종동, 지하1일부,1,2,3,4층)","경기도 부천시 원종동 230번지 3호 지하1일부,1,2,3,4층",14427,37.5271168,126.8044312,,영업중,,032-681-2333,,병원,182648.9688,447235.875,병원,18,12,54,1626.29,101 104 105 106 109 111 116 118 120 122 125,"내과, 외과, 정형외과, 신경외과, 마취통증의학과, 소아청소년과, 영상의학과, 병리과, 재활의학과, 가정의학과, 응급의학과",0,0,0
부천시,부천하나요양병원,20071205,"경기도 부천시 소사로 235, 2층일부,3~5층 (소사본동)",경기도 부천시 소사본동 82번지 1호 2층일부.3~5층,14705,37.47925469,126.795211,,영업중,,032-344-7114,,요양병원(일반요양병원),181815.7554,441923.8753,요양병원(일반요양병원),18,25,163,2063,308 301 122 120 105 102 101,"내과, 신경과, 정형외과, 재활의학과, 가정의학과, 한방내과, 침구과",0,0,0
부천시,부천한병원,20160107,경기도 부천시 부천로 170 (춘의동),경기도 부천시 춘의동 205-12번지,14557,37.49931682,126.7864675,,영업중,,032-668-1119,,요양병원(정신병원),181053.4061,444153.7371,요양병원(정신병원),6,25,183,2654.88,103,정신건강의학과,0,0,0
부천시,사과나무치과병원,20150731,"경기도 부천시 부천로 20, 3층일부, 부천시 부일로483번길 8 (2,3층) (심곡동)","경기도 부천시 심곡동 168번지 8호 3층일부, 부천시 부일로483번길 8 (2,3층)",14641,37.48601326,126.7838036,,영업중,,032-667-2800,,치과병원,180790.7337,442675.1948,치과병원,9,0,0,1260.78,411 407 406 404 403,"치과보철과, 치과교정과, 치주과, 치과보존과, 예방치과",0,0,0
부천시,상동서울한방병원,20171017,"경기도 부천시 소향로 11, 2층 201-206, 208-2014호 (상동)",경기도 부천시 상동 547번지 1호 코오롱이데아폴리스,14544,37.50441356,126.7487685,,영업중,,225-8000,,한방병원,177715.8852,444717.054,한방병원,4,21,75,1613.25,308 307 306 305 304 303 302 301 115 114 113 111 109 101,"내과, 마취통증의학과, 소아청소년과, 이비인후과, 피부과, 비뇨의학과, 한방내과, 한방부인과, 한방소아과, 한방안·이비인후·피부과, 한방신경정신과, 한방재활의학과, 사상체질과, 침구과",0,0,0
부천시,생생병원,20160921,"경기도 부천시 경인옛로 3 (소사본동, 소사메디파크 5~8층)",경기도 부천시 소사본동 70번지 소사메디파크 5~8층,14704,37.4819286,126.7931839,,영업중,,032-230-0700,,병원,181632.5498,442226.3126,병원,48,15,64,2442.64,116 109 106 105 101,"내과, 정형외과, 신경외과, 마취통증의학과, 영상의학과",0,0,0
부천시,서울여성병원,20050908,"경기도 부천시 길주로 84, 1~7층,8층 일부, 서울여성병원 / 길주로 74 3층 일부 (건강검진센터)  (상동)","경기도 부천시 상동 544번지 2호 1~7층, 8층 일부, 서울여성병원 / 상동 548-7, 3층 일부 (건강검진센터)",14544,37.50524275,126.7516,,영업중,,032-230-3000,,병원,177965.749,444810.5054,병원,86,53,89,16242.5,101 104 109 110 111 122,"내과, 외과, 마취통증의학과, 산부인과, 소아청소년과, 가정의학과",0,0,0
부천시,센트로병원,20070629,"경기도 부천시 소사로 694, 성진프라자 2층,3층,4층,6층일부 (원종동)","경기도 부천시 원종동 371번지 2호 성진프라자,2층,3층,4층,6층일부",14473,37.5178738,126.8051005,,영업중,,032-675-0030,,병원,182705.2342,446210.5783,병원,13,13,59,1792.08,101 102 105 106 109 116 118 120,"내과, 신경과, 정형외과, 신경외과, 마취통증의학과, 영상의학과, 병리과, 재활의학과",0,0,0
부천시,순천향대학교부속부천병원,20010129,경기도 부천시 조마루로 170 (중동),경기도 부천시 중동 1174번지,14584,37.4983685,126.7621105,,영업중,,032-621-5114,,종합병원,178936,444135,종합병원,1445,245,928,90076.59,403 402 125 124 123 122 120 119 118 117 116 115 114 113 112 111 110 109 108 107 106 105 104 103 102 101,"내과, 신경과, 정신건강의학과, 외과, 정형외과, 신경외과, 흉부외과, 성형외과, 마취통증의학과, 산부인과, 소아청소년과, 안과, 이비인후과, 피부과, 비뇨의학과, 영상의학과, 방사선종양학과, 병리과, 진단검사의학과, 재활의학과, 가정의학과, 핵의학과, 직업환경의학과, 응급의학과, 구강악안면외과, 치과보철과",0,0,0
부천시,스마튼병원,20131230,"경기도 부천시 신흥로 240 (중동, 스마튼병원)",경기도 부천시 중동 1061번지 6호,14534,37.50498974,126.776086,,영업중,,032-1661-0505,,병원,180132.6981,444778.4047,병원,10,11,52,2405.03,122 116 109 106 105 101,"내과, 정형외과, 신경외과, 마취통증의학과, 영상의학과, 가정의학과",0,0,0
부천시,엘드림병원,20120913,경기도 부천시 경인로 17 (송내동),경기도 부천시 송내동 329-9번지,14730,37.48362544,126.7568377,,영업중,,032-612-8575,,요양병원(일반요양병원),178434.716,442398.1982,요양병원(일반요양병원),18,34,150,2695.68,101 120 122 102 306 301,"내과, 신경과, 재활의학과, 가정의학과, 한방내과, 한방재활의학과",0,0,0
부천시,연세본사랑병원,20030415,"경기도 부천시 부일로 706, (역곡로 1번길 64), (부일로 705, 2~3층, 6층) (역곡동)",경기도 부천시 역곡동 49번지 3호 연세사랑병원,14673,37.48454256,126.8083542,,영업중,,032-650-5514,,병원,182983.3939,442511.276,병원,62,15,66,2465.58,122 120 116 115 114 113 111 110 109 106 105 104 101,"내과, 외과, 정형외과, 신경외과, 마취통증의학과, 산부인과, 소아청소년과, 이비인후과, 피부과, 비뇨의학과, 영상의학과, 재활의학과, 가정의학과",0,0,0
부천시,연세제일병원,20190701,"경기도 부천시 삼작로 252, 정남프라자 2층일부,5층 (도당동)","경기도 부천시 도당동 58번지 2호 정남프라자 2층일부, 5층",14481,37.51993439,126.7894985,,영업중,,032-661-9119,,병원,181320.0599,446432.4325,병원,5,15,51,1510,122 120 116 109 106 105 104 101,"내과, 외과, 정형외과, 신경외과, 마취통증의학과, 영상의학과, 재활의학과, 가정의학과",0,0,0
부천시,예손병원,20061124,"경기도 부천시 부천로 206 (춘의동, 다성빌딩)",경기도 부천시 춘의동 164-3번지 외 1필지,14555,37.50258004,126.7874342,,영업중,,1666-7582,,병원,181144.4255,444515.8904,병원,125,64,180,10411.67,122 120 119 116 111 109 106 105 104 101,"내과, 외과, 정형외과, 신경외과, 마취통증의학과, 소아청소년과, 영상의학과, 진단검사의학과, 재활의학과, 가정의학과",0,0,0
부천시,오정본병원,20141007,"경기도 부천시 소사로 801, ,소사로 802-1(성운빌딩.401호) (원종동)","경기도 부천시 원종동 230번지 17호 ,원종동 231-14 성운빌딩 401호",14427,37.52756727,126.8043735,,영업중,,032-678-5000,,병원,182644.2283,447285.3117,병원,16,12,51,2191.22,101 105 116 122,"내과, 정형외과, 영상의학과, 가정의학과",0,0,0
부천시,의료법인대인의료재단 다니엘종합병원,20040611,"경기도 부천시 중동로 361, 다니엘종합병원 (약대동)",경기도 부천시 약대동 138번지 7호 다니엘종합병원,14513,37.51233114,126.7694863,,영업중,,032-670-0001,,종합병원,179537,445585,종합병원,113,73,279,6706.8,407 406 403 125 122 119 116 115 113 110 109 107 106 105 104 102 101,"내과, 신경과, 외과, 정형외과, 신경외과, 흉부외과, 마취통증의학과, 산부인과, 이비인후과, 비뇨의학과, 영상의학과, 진단검사의학과, 가정의학과, 응급의학과, 치과보철과, 치주과, 치과보존과",0,0,0
부천시,의료법인서흥의료재단부천현대요양병원,20080303,"경기도 부천시 중동로254번길 24, 1~7층 (중동)","경기도 부천시 중동 1151-2번지 , 1~7층",14548,37.50204268,126.7700728,,영업중,,032-323-2200,,요양병원(일반요양병원),179609,444474,요양병원(일반요양병원),29,26,162,3494.34,101 102 103 104 105 111 114 115 120 122 301 302 303 304 305 306 307 308,"내과, 신경과, 정신건강의학과, 외과, 정형외과, 소아청소년과, 피부과, 비뇨의학과, 재활의학과, 가정의학과, 한방내과, 한방부인과, 한방소아과, 한방안·이비인후·피부과, 한방신경정신과, 한방재활의학과, 사상체질과, 침구과",0,0,0
부천시,의료법인송하의료재단베스티안부천병원,20031202,"경기도 부천시 심곡로10번길 68 (송내동, 베스티안병원)",경기도 부천시 송내동 577번지 2호,14725,37.48337827,126.7721885,,영업중,,3215887876,,병원,179785.7348,442386.7511,병원,26,19,61,3810.99,125 122 120 119 116 115 114 113 111 109 106 105 104 101,"내과, 외과, 정형외과, 신경외과, 마취통증의학과, 소아청소년과, 이비인후과, 피부과, 비뇨의학과, 영상의학과, 진단검사의학과, 재활의학과, 가정의학과, 응급의학과",0,0,0
부천시,의료법인운천의료재단메디홀스요양병원,20101223,경기도 부천시 경인로110번길 14 (송내동),경기도 부천시 송내동 385-5번지,14727,37.48343182,126.7673605,,영업중,,032-656-4114,,요양병원(일반요양병원),179365.189,442367.1299,요양병원(일반요양병원),49,60,357,3470.93,308 122 105 104 102 101,"내과, 신경과, 외과, 정형외과, 가정의학과, 침구과",0,0,0
부천시,의료법인의향의료재단그린한방병원,20070104,"경기도 부천시 부흥로303번길 36, 301,401호 (중동, 금호프라자)","경기도 부천시 중동 1123번지 , 1123외1번지, 301,401호",14582,37.49636927,126.7761629,,영업중,,032-327-6116,,한방병원,180136,443812,한방병원,8,16,60,1363.15,301 302 303 304 305 308 306,"한방내과, 한방부인과, 한방소아과, 한방안·이비인후·피부과, 한방신경정신과, 한방재활의학과, 침구과",0,0,0
부천시,의료법인혜원의료재단세종병원,19820820,"경기도 부천시 호현로489번길 28 (소사본동, 세종병원)",경기도 부천시 소사본동 91번지 121호,14754,37.48104235,126.7911903,,영업중,,032-340-1114,,종합병원,181473.9391,442109.9289,종합병원,481,86,320,17008.19,411 410 409 408 407 406 405 403 402 125 122 120 119 118 116 115 114 113 111 110 109 107 106 105 104 103 102 101,"내과, 신경과, 정신건강의학과, 외과, 정형외과, 신경외과, 흉부외과, 마취통증의학과, 산부인과, 소아청소년과, 이비인후과, 피부과, 비뇨의학과, 영상의학과, 병리과, 진단검사의학과, 재활의학과, 가정의학과, 응급의학과, 구강악안면외과, 치과보철과, 소아치과, 치주과, 치과보존과, 구강내과, 영상치의학과, 구강병리과, 예방치과",0,0,0
부천시,이룸병원,20160906,"경기도 부천시 수도로 93 (내동, 태양빌딩 2층,3층일부,4층,5층)","경기도 부천시 내동 59번지 태양빌딩 2층,3층일부,4층,5층",14491,37.51559571,126.7757994,,영업중,,032-674-5567~8,,병원,180112.7288,445964.1023,병원,23,50,292,4247.75,308 307 306 305 304 303 302 301 122 105 103 101,"내과, 정신건강의학과, 정형외과, 가정의학과, 한방내과, 한방부인과, 한방소아과, 한방안·이비인후·피부과, 한방신경정신과, 한방재활의학과, 사상체질과, 침구과",0,0,0
부천시,이안치과병원,20090224,"경기도 부천시 소사로 713, 3층 301호,302호 4층 402호 (원종동)","경기도 부천시 원종동 375-1번지 (2층, 3층)",14465,37.5195665,126.8044286,,영업중,,032-677-8885,,치과병원,182662,446403,치과병원,1,0,0,350.35,210 202 205 208 211 404 407 201 204 207,"구강악안면외과, 치과보철과, 소아치과, 치주과, 구강내과, 구강악안면방사선과, 예방치과, 치과, 치과교정과, 치과보존과",0,0,0
부천시,인본병원,20150302,"경기도 부천시 상동로 90, 메가플러스빌딩 504,504-2,505,508일부호 (상동)","경기도 부천시 상동 541번지 1호 504,504-2,505,508일부호",14545,37.50513002,126.7537282,,영업중,,1661-7050,,병원,178156.5603,444798.494,병원,28,11,48,1807.9,105 106 101 116 109 111,"내과, 정형외과, 신경외과, 마취통증의학과, 소아청소년과, 영상의학과",0,0,0
부천시,재단법인대성재단대성요양병원,20070105,"경기도 부천시 소향로 143, 1동 3,4층 (중동)",경기도 부천시 중동 1160-2번지,14547,37.50214716,126.7637394,,영업중,,321-5190,,요양병원(일반요양병원),179043.3299,444472.2346,요양병원(일반요양병원),7,16,106,1382.38,101 102 120 122,"내과, 신경과, 재활의학과, 가정의학과",0,0,0
부천시,재단법인대성재단디에스병원,20060315,"경기도 부천시 부흥로 377 (심곡동, 디에스병원)",경기도 부천시 심곡동 106번지 디에스병원,14578,37.49186904,126.783436,,영업중,,610-1110,,병원,180787,443297,병원,16,29,153,2883.52,101 116 119,"내과, 영상의학과, 진단검사의학과",0,0,0
부천시,재단법인자생의료재단부천자생한방병원,20010530,"경기도 부천시 부일로191번길 17 (상동, 자생한방병원)",경기도 부천시 상동 414번지,14598,37.48942375,126.7515429,,영업중,,032-320-8800,,한방병원,177957.331,443053.4877,한방병원,80,21,95,4468.09,308 306 305 302 301 116 101,"내과, 영상의학과, 한방내과, 한방부인과, 한방신경정신과, 한방재활의학과, 침구과",0,0,0
부천시,진병원,20080110,"경기도 부천시 석천로177번길 39, 1,5,6,7층 (중동, 미라클타워)",경기도 부천시 중동 1167번지 1호,14546,37.50328503,126.7606031,,영업중,,032-322-8275,,요양병원(정신병원),178766.2928,444599.4708,요양병원(정신병원),10,18,125,1606.9,101 102 103 113 115 122,"내과, 신경과, 정신건강의학과, 이비인후과, 비뇨의학과, 가정의학과",0,0,0
부천시,차오름한방병원,20130904,"경기도 부천시 부천로 267, 지하1,2,3층 (도당동)","경기도 부천시 도당동 258-32번지 지하1,2,3층",14525,37.50759489,126.7853579,,영업중,,032-672-7975,,한방병원,180959,445096,한방병원,3,13,53,1392.53,308 307 306 305 304 303 302 301 122 114 109 106 105 101,"내과, 정형외과, 신경외과, 마취통증의학과, 피부과, 가정의학과, 한방내과, 한방부인과, 한방소아과, 한방안·이비인후·피부과, 한방신경정신과, 한방재활의학과, 사상체질과, 침구과",0,0,0
부천시,초앤유여성병원,20040525,경기도 부천시 중동로248번길 19 (중동),경기도 부천시 중동 1151-6번지,14548,37.50191339,126.7697801,,영업중,,032-326-0095,,병원,179572.165,444434.015,병원,13,23,43,3154.1,110 111,"산부인과, 소아청소년과",0,0,0
부천시,큰사랑요양병원,20120731,"경기도 부천시 부흥로373번길 78, 601,701호 (심곡동)","경기도 부천시 심곡동 93-1번지 601호,701호",14577,37.49497465,126.7847802,,영업중,,612-0056,,요양병원(일반요양병원),180890,443651,요양병원(일반요양병원),19,28,183,2020.75,308 122 115 114 111 110 106 105 104 101,"내과, 외과, 정형외과, 신경외과, 산부인과, 소아청소년과, 피부과, 비뇨의학과, 가정의학과, 침구과",0,0,0
부천시,평강치과병원,20071113,"경기도 부천시 경인로 253, 403호 (심곡본동, 데카에셋빌딩)",경기도 부천시 심곡본동 552번지 데카에셋빌딩 403호,14710,37.4832648,126.7835742,,영업중,,032-651-7528,,치과병원,180799,442365,치과병원,1,0,0,157,401,치과,0,0,0
부천시,프라임고려한방병원,20170102,"경기도 부천시 부천로 120, 4층,5층 (원미동, SC제일은행부천지점)",경기도 부천시 원미동 111번지 1호,14569,37.49497889,126.7854815,,영업중,,032-611-0912,,한방병원,180960.1717,443663.9262,한방병원,2,7,30,531.96,308 307 306 305 304 303 302 301,"한방내과, 한방부인과, 한방소아과, 한방안·이비인후·피부과, 한방신경정신과, 한방재활의학과, 사상체질과, 침구과",0,0,0
부천시,프라임요양병원,20140829,경기도 부천시 성곡로 43 (여월동),경기도 부천시 여월동 44-87번지,14484,37.51795409,126.7992975,,영업중,,032-682-7582,,요양병원(일반요양병원),182191.4232,446219.5551,요양병원(일반요양병원),28,22,138,2118.86,101 104 111 105 122 120 106 301 302 303 308 307,"내과, 외과, 정형외과, 신경외과, 소아청소년과, 재활의학과, 가정의학과, 한방내과, 한방부인과, 한방소아과, 사상체질과, 침구과",0,0,0
부천시,하이병원,20101001,경기도 부천시 계남로 310 (중동),경기도 부천시 중동 1086번지 4호 하이병원,14530,37.50309208,126.7816615,,영업중,,032-1666-7775,,병원,180629.6709,444574.6577,병원,40,13,62,2695.6,101 105 106 109 116,"내과, 정형외과, 신경외과, 마취통증의학과, 영상의학과",0,0,0
부천시,한우리요양병원,20101206,"경기도 부천시 여월로 70, 정방프라자 지하1층일부, 1층일부, 2층일부,3층,4층,5층 (여월동)",경기도 부천시 여월동 335번지 정방프라자,14479,37.51147878,126.8062711,,영업중,,032-682-8283,,요양병원(일반요양병원),182824.7973,445480.1686,요양병원(일반요양병원),36,42,270,4572.13,122 105 106 306 114 120 308 301,"정형외과, 신경외과, 피부과, 재활의학과, 가정의학과, 한방내과, 한방재활의학과, 침구과",0,0,0
부천시,한중한방병원,20190122,"경기도 부천시 중동로 426, 창안빌딩 2층,3층 (삼정동)","경기도 부천시 삼정동 303번지 1호 창안빌딩 2층,3층",14492,37.5176752,126.7702957,,영업중,,1522-6344,,한방병원,179627.1111,446196.4282,한방병원,5,18,56,1346.53,308 307 306 305 304 303 302 301 122,"가정의학과, 한방내과, 한방부인과, 한방소아과, 한방안·이비인후·피부과, 한방신경정신과, 한방재활의학과, 사상체질과, 침구과",0,0,0
부천시,현병원,20051115,경기도 부천시 부천로 392 (내동),경기도 부천시 내동 314번지 2호,14455,37.51906894,126.7849916,,영업중,,682-7531,,병원,181142,446413,병원,4,11,36,1651.93,101 104 105 106 111 113 114 115 122 301,"내과, 외과, 정형외과, 신경외과, 소아청소년과, 이비인후과, 피부과, 비뇨의학과, 가정의학과, 한방내과",0,0,0
부천시,효메디한방병원,20181228,"경기도 부천시 부광로 52, 수현프라자 201,301,401,501호 (괴안동)","경기도 부천시 괴안동 247번지 1호 수현프라자 201,301,401,504호",14689,37.48036056,126.8146543,,영업중,,032-666-8090,,한방병원,180774.9409,443145.2629,한방병원,4,21,67,1450.04,308 306 305 301 122 101,"내과, 가정의학과, 한방내과, 한방신경정신과, 한방재활의학과, 침구과",0,0,0
부천시,효플러스요양병원,20130904,"경기도 부천시 길주로 137, 8층 (상동)",경기도 부천시 상동 538-4번지 8층,14542,37.5060089,126.7576312,,영업중,,032-657-7582,,요양병원(일반요양병원),178507,444894,요양병원(일반요양병원),18,21,144,1637.01,101 102 103 104 105 106 115 120 122 301 302 303 304 305 306 307 308 309,"내과, 신경과, 정신건강의학과, 외과, 정형외과, 신경외과, 비뇨의학과, 재활의학과, 가정의학과, 한방내과, 한방부인과, 한방소아과, 한방안·이비인후·피부과, 한방신경정신과, 한방재활의학과, 사상체질과, 침구과, 한방응급과",0,0,0
부천시,휴앤유병원,20080109,"경기도 부천시 심곡로10번길 63, 휴앤유병원 (송내동)",경기도 부천시 송내동 576번지 2호 휴앤유병원,14736,37.48300204,126.7725318,,영업중,,032-202-0114,,병원,179809.276,442340.7286,병원,63,51,221,6980.88,120 103 102 101,"내과, 신경과, 정신건강의학과, 재활의학과",0,0,0
성남시,(학교법인)동국대학교 한의과대학 분당한방병원,19960722,"경기도 성남시 분당구 불정로 268 (수내동, 동국대한방병원)",경기도 성남시 분당구 수내동 87-2번지 동국대한방병원,13601,37.36727017,127.1279806,,영업중,,710-3700,,한방병원,211269.2191,429474.848,한방병원,51,23,79,6675.69,101 116 120 122 301 302 303 304 305 306 307 308,"내과, 영상의학과, 재활의학과, 가정의학과, 한방내과, 한방부인과, 한방소아과, 한방안·이비인후·피부과, 한방신경정신과, 한방재활의학과, 사상체질과, 침구과",0,0,0
성남시,경희나로한방병원,20200309,"경기도 성남시 분당구 돌마로 67, 금산젬월드 8층 (금곡동)",경기도 성남시 분당구 금곡동 157번지 금산젬월드 8층,13618,37.35049904,127.1095237,,영업중,,031-701-3000,,한방병원,209632.611,427611.3567,한방병원,9,17,53,1701.87,122 301 302 303 304 305 306 308,"가정의학과, 한방내과, 한방부인과, 한방소아과, 한방안·이비인후·피부과, 한방신경정신과, 한방재활의학과, 침구과",0,0,0
성남시,곽여성병원,20050217,경기도 성남시 수정구 수정로 91 (태평동),"경기도 성남시 수정구 태평1동 6450번지 외 1필지, 6452번지",13310,37.44077619,127.1304658,,영업중,,031-752-1119,,병원,211473.012,437639.1229,병원,44,89,138,1961,122 114 111 110 109 105 104 101,"내과, 외과, 정형외과, 마취통증의학과, 산부인과, 소아청소년과, 피부과, 가정의학과",0,0,0
성남시,국군수도병원,20000226,경기도 성남시 분당구 새마을로177번길 81 (율동),경기도 성남시 분당구 율동 2길 66호,13574,37.39227768,127.1490194,,영업중,,317256154,,종합병원,,,종합병원,379,152,660,75683.12,401 125 123 122 120 119 118 116 115 114 113 112 111 110 109 108 107 106 105 104 103 102 101,"내과, 신경과, 정신건강의학과, 외과, 정형외과, 신경외과, 흉부외과, 성형외과, 마취통증의학과, 산부인과, 소아청소년과, 안과, 이비인후과, 피부과, 비뇨의학과, 영상의학과, 병리과, 진단검사의학과, 재활의학과, 가정의학과, 핵의학과, 응급의학과, 치과",0,0,0
성남시,국군수도치과병원,20020601,"경기도 성남시 분당구 새마을로177번길 81, 66호 (율동)",경기도 성남시 분당구 율동 2길 66호,13574,37.39227768,127.1490194,,영업중,,725-6185,,치과병원,,,치과병원,15,0,0,1531.4,408 407 406 404 403 402 401,"치과, 구강악안면외과, 치과보철과, 치과교정과, 치주과, 치과보존과, 구강내과",0,0,0
성남시,대진의료재단 분당제생병원,19980328,경기도 성남시 분당구 서현로180번길 20 (서현동),경기도 성남시분당구 서현동 255번지 2호,13590,37.38820758,127.121777,,영업중,,031-779-0114,,종합병원,210700.7549,431789.6374,종합병원,719,149,564,52177.13,407 403 402 125 123 122 120 119 118 117 116 115 114 113 112 111 110 109 108 107 106 105 104 103 102 101,"내과, 신경과, 정신건강의학과, 외과, 정형외과, 신경외과, 흉부외과, 성형외과, 마취통증의학과, 산부인과, 소아청소년과, 안과, 이비인후과, 피부과, 비뇨의학과, 영상의학과, 방사선종양학과, 병리과, 진단검사의학과, 재활의학과, 가정의학과, 핵의학과, 응급의학과, 구강악안면외과, 치과보철과, 치과보존과",0,0,0
성남시,더조은병원,20170914,"경기도 성남시 수정구 위례서일로 18, 4-11(6층일부)층 (창곡동)",경기도 성남시 수정구 창곡동 559번지 4호,13647,37.46510888,127.1378207,,영업중,,1588-0852,,병원,,,병원,20,46,158,7372.06,122 119 116 114 111 110 109 106 105 101,"내과, 정형외과, 신경외과, 마취통증의학과, 산부인과, 소아청소년과, 피부과, 영상의학과, 진단검사의학과, 가정의학과",0,0,0
성남시,드라마치과병원,20110810,"경기도 성남시 분당구 정자일로198번길 15, 7층 일부호 (정자동, 제나프라자)",경기도 성남시 분당구 정자동 17-4번지 제나프라자 7층 일부호,13558,37.3675888,127.1076316,,영업중,,716-2895,,치과병원,209468.6775,429517.6588,치과병원,2,0,0,595.33,401,치과,0,0,0
성남시,라온힐요양병원,20140808,"경기도 성남시 중원구 양현로405번길 13, 지하3층.2~10층 (여수동)",경기도 성남시 중원구 여수동 202번지 지하3층.2~10층,13439,37.41825766,127.126881,,영업중,,031-709-9119,,요양병원(일반요양병원),211162.565,435133.7518,요양병원(일반요양병원),28,35,205,4672.39,101 102 105 107 112 120 122,"내과, 신경과, 정형외과, 흉부외과, 안과, 재활의학과, 가정의학과",0,0,0
성남시,바른마디병원,20131202,경기도 성남시 중원구 광명로 330 (금광동),경기도 성남시 중원구 금광동 1349번지,13182,37.44526189,127.162573,,영업중,,031-735-9110,,병원,214318.5664,438127.5831,병원,45,20,87,3357.63,122 120 119 116 109 108 106 105 104 102 101,"내과, 신경과, 외과, 정형외과, 신경외과, 성형외과, 마취통증의학과, 영상의학과, 진단검사의학과, 재활의학과, 가정의학과",0,0,0
성남시,바른세상병원,20060201,"경기도 성남시 분당구 야탑로75번길 5, 중앙빌딩 지1~5층 (야탑동)",경기도 성남시 분당구 야탑동 355-5번지 중앙빌딩 지1~5층,13497,37.41022412,127.1267687,,영업중,,031-703-5575,,병원,211158.2875,434251.3106,병원,128,41,179,18742.09,101 102 105 106 109 116 120 122,"내과, 신경과, 정형외과, 신경외과, 마취통증의학과, 영상의학과, 재활의학과, 가정의학과",0,0,0
성남시,밸런스치과병원,20180803,"경기도 성남시 분당구 분당내곡로 117, 알파돔타워Ⅳ 3층 301호 (백현동)",경기도 성남시 분당구 백현동 535번지 301호,13529,37.39425126,127.1120195,,영업중,,031-622-7528,,치과병원,,,치과병원,4,0,0,588.43,408 407 406 404 403 402,"구강악안면외과, 치과보철과, 치과교정과, 치주과, 치과보존과, 구강내과",0,0,0
성남시,보바스기념병원,20060529,"경기도 성남시 분당구 대왕판교로 155-7 (금곡동, 보바스기념병원)",경기도 성남시 분당구 금곡동 310-8번지 보바스기념병원,13552,37.35609531,127.098361,,영업중,,1877-5661,,요양병원(노인병원),208654.911,428191.6316,요양병원(노인병원),147,191,522,8178.17,101 102 110 116 120,"내과, 신경과, 산부인과, 영상의학과, 재활의학과",0,0,0
성남시,분당21세기병원,20131125,"경기도 성남시 분당구 황새울로342번길 15, 5층일부, 6층 (서현동, 은성빌딩)","경기도 성남시 분당구 서현동 250-6번지 은성빌딩 5층일부, 6층",13591,37.38633237,127.1238839,,영업중,,031-703-0175,,병원,210905.9718,431600.1594,병원,4,8,30,737.13,105 106 109 116,"정형외과, 신경외과, 마취통증의학과, 영상의학과",0,0,0
성남시,분당러스크재활전문병원,20061115,"경기도 성남시 분당구 정자일로156번길 6, 3~8층 (정자동, 뉴본타워)",경기도 성남시 분당구 정자동 155-1번지 뉴본타워 3~8층,13558,37.36398211,127.1063144,,영업중,,031-716-0007,,병원,209347.1104,429108.0523,병원,65,43,191,4397.6,101 102 105 106 120 122,"내과, 신경과, 정형외과, 신경외과, 재활의학과, 가정의학과",0,0,0
성남시,분당베스트병원,20120713,"경기도 성남시 분당구 성남대로926번길 6, 701,801호 (야탑동, 야탑대덕프라자)","경기도 성남시 분당구 야탑동 361번지 5호 야탑 대덕프라자 701호, 801호",13506,37.41219183,127.129883,,영업중,,1899-0175,,병원,211425.5378,434474.1061,병원,44,29,149,4326.15,308 307 306 305 304 303 302 301 120,"재활의학과, 한방내과, 한방부인과, 한방소아과, 한방안·이비인후·피부과, 한방신경정신과, 한방재활의학과, 사상체질과, 침구과",0,0,0
성남시,분당서울대학교병원,20030415,"경기도 성남시 분당구 구미로173번길 82 (구미동, 분당서울대학교병원)",경기도 성남시 분당구 구미동 300번지 분당서울대학교병원,13620,37.35201678,127.1244992,,영업중,,031-787-2114,,종합병원,210937.2606,427534.2799,종합병원,2848,384,1324,173868.17,101 102 103 104 105 106 107 108 109 110 111 112 113 114 115 116 117 118 119 120 122 123 125 402 403 404 406 407,"내과, 신경과, 정신건강의학과, 외과, 정형외과, 신경외과, 흉부외과, 성형외과, 마취통증의학과, 산부인과, 소아청소년과, 안과, 이비인후과, 피부과, 비뇨의학과, 영상의학과, 방사선종양학과, 병리과, 진단검사의학과, 재활의학과, 가정의학과, 핵의학과, 응급의학과, 구강악안면외과, 치과보철과, 치과교정과, 치주과, 치과보존과",0,0,0
성남시,분당센트럴요양병원,20171110,"경기도 성남시 분당구 양현로94번길 17, 지1층~5층 (이매동)",경기도 성남시 분당구 이매동 120번지 5호 지1층~5층,13568,37.39127682,127.1260432,,영업중,,031-706-9090,,요양병원(일반요양병원),211093.185,432142.415,요양병원(일반요양병원),28,40,171,3183.76,308 307 306 302 301 122 120 102 101,"내과, 신경과, 재활의학과, 가정의학과, 한방내과, 한방부인과, 한방재활의학과, 사상체질과, 침구과",0,0,0
성남시,분당수요양병원,20150206,"경기도 성남시 분당구 판교로 473, 2,3,4,6층 (야탑동, ROOKIE 1129)","경기도 성남시 분당구 야탑동 532-4번지 ROOKIE 1129 2,3,4,6층",13521,37.4056654,127.1264111,,영업중,,703-7500,,요양병원(일반요양병원),211127,433739,요양병원(일반요양병원),16,23,96,1641.46,308 306 301 120 116 106 105 101,"내과, 정형외과, 신경외과, 영상의학과, 재활의학과, 한방내과, 한방재활의학과, 침구과",0,0,0
성남시,분당에이치병원,20040608,"경기도 성남시 분당구 백현로 97, 1004호,1005호,1101호일부,1104호 호 (수내동)","경기도 성남시 분당구 수내동 22-3번지 1004호,1005호,1101호일부,1104호 호",13595,37.37685253,127.111375,,영업중,,02-1577-5975,,병원,209795.6856,430535.0161,병원,27,15,39,2032.92,124 122 116 105 102 101,"내과, 신경과, 정형외과, 영상의학과, 가정의학과, 직업환경의학과",0,0,0
성남시,분당연세요양병원,20090105,"경기도 성남시 분당구 양현로375번길 31, 지하1층,1,2,3층 (야탑동)","경기도 성남시 분당구 야탑동 402-14번지 지하1층,1,2,3층",13381,37.4160507,127.1208252,,영업중,,703-0888,,요양병원(일반요양병원),210629.74,434896.985,요양병원(일반요양병원),62,41,256,4681.95,308 122 120 101,"내과, 재활의학과, 가정의학과, 침구과",0,0,0
성남시,분당예치과병원,20000424,"경기도 성남시 분당구 황새울로258번길 37, 2층 (수내동, 흥국생명빌딩)",경기도 성남시 분당구 수내동 6~7 흥국생명빌딩 2층,13595,37.37861854,127.1159681,,영업중,,708-2828,,치과병원,210204.8534,430741.5297,치과병원,6,0,0,426.75,401,치과,0,0,0
성남시,분당제일여성병원,20060807,"경기도 성남시 분당구 서현로180번길 27, 1~6층 (서현동, 분당제일여성병원)",경기도 성남시 분당구 서현동 260-1번지 분당제일여성병원 1~6층,13590,37.38695479,127.1218172,,영업중,,031-725-8500,,병원,210716.2583,431661.6381,병원,142,57,92,4321.07,104 110 111,"외과, 산부인과, 소아청소년과",0,0,0
성남시,분당척병원,20100111,"경기도 성남시 분당구 성남대로 932, 1~8층 별관:성남대로926번길 12 금탑프라자 702~706 호 (야탑동)",경기도 성남시 분당구 야탑동 360번지 5호,13506,37.41280742,127.1292128,,영업중,,1599-7500,,병원,211374.6696,434537.4623,병원,80,17,72,5577.3,122 120 116 109 106 105,"정형외과, 신경외과, 마취통증의학과, 영상의학과, 재활의학과, 가정의학과",0,0,0
성남시,사랑의병원,20130910,"경기도 성남시 분당구 분당내곡로 151, 6일부,7층 601~603,605,7층호 (삼평동)","경기도 성남시 분당구 삼평동 656번지 6일부,7층 601~603,605,7층호",13524,37.39738061,127.1125005,,영업중,,031-8017-0101,,병원,209893.1944,432815.2377,병원,14,9,37,1105.52,101 104 110 113 114 122 126,"내과, 외과, 산부인과, 이비인후과, 피부과, 가정의학과, 예방의학과",0,0,0
성남시,새소망병원,20050217,경기도 성남시 수정구 성남대로 1219 (수진동),경기도 성남시수정구 수진2동 4553,13313,37.43855093,127.1274933,,영업중,,031-722-3650,,요양병원(일반요양병원),211217.4498,437395.5078,요양병원(일반요양병원),26,34,131,2789.3,122 102 101,"내과, 신경과, 가정의학과",0,0,0
성남시,서울나우병원,20030317,"경기도 성남시 분당구 분당로 43, 나우빌딩 5~11층,12일부층 (서현동)",경기도 성남시 분당구 서현동 267번지 3호 나우빌딩,13591,37.38407441,127.1202615,,영업중,,031-1588-2691,,병원,210585.1836,431337.3045,병원,64,17,64,4203.98,101 105 106 109 116 120 122,"내과, 정형외과, 신경외과, 마취통증의학과, 영상의학과, 재활의학과, 가정의학과",0,0,0
성남시,성남사랑의병원,20101004,"경기도 성남시 수정구 성남대로 1270-1, 성남대로 1262, 11-12층  (태평동)",경기도 성남시 수정구 태평동 6116번지,13308,37.44329076,127.1275141,,영업중,,031-756-3024,,요양병원(정신병원),211213.4091,437914.2989,요양병원(정신병원),16,26,180,2336.46,122 114 103 101,"내과, 정신건강의학과, 피부과, 가정의학과",0,0,0
성남시,성남시의료원,20191107,"경기도 성남시 수정구 수정로171번길 10, 성남시의료원 (태평동)",경기도 성남시 수정구 태평동 3309번지 성남시의료원,13290,37.44484987,127.1390489,,영업중,,031-738-7801,,종합병원,212249.0755,438077.5231,종합병원,263,104,363,55045.29,412 411 409 408 407 406 405 403 402 125 122 120 119 118 116 115 113 112 111 110 109 108 107 106 105 104 103 102 101,"내과, 신경과, 정신건강의학과, 외과, 정형외과, 신경외과, 흉부외과, 성형외과, 마취통증의학과, 산부인과, 소아청소년과, 안과, 이비인후과, 비뇨의학과, 영상의학과, 병리과, 진단검사의학과, 재활의학과, 가정의학과, 응급의학과, 구강악안면외과, 치과보철과, 소아치과, 치주과, 치과보존과, 구강내과, 영상치의학과, 예방치과, 통합치의학과",0,0,0
성남시,성남예치과병원,20100409,경기도 성남시 중원구 성남대로 1141 (성남동),경기도 성남시 중원구 성남동 4167번지 예치과빌딩 2-5층,13376,37.43166608,127.1286231,,영업중,,031-757-9999,,치과병원,211320.0041,436629.4522,치과병원,6,0,0,994.56,411 410 409 408 407 406 405 404 403,"치과보철과, 치과교정과, 소아치과, 치주과, 치과보존과, 구강내과, 영상치의학과, 구강병리과, 예방치과",0,0,0
성남시,성남요양병원,20150304,"경기도 성남시 중원구 광명로 299, 행림빌딩 지하1층,3~8층 (금광동)","경기도 성남시 중원구 금광동 15번지 행림빌딩,지하1층,3~8층",13180,37.44455003,127.1591558,,영업중,,031-731-8899,,요양병원(일반요양병원),214018.3116,438064.647,요양병원(일반요양병원),38,33,188,3733.13,101 105 122 120 301 306 308,"내과, 정형외과, 재활의학과, 가정의학과, 한방내과, 한방재활의학과, 침구과",0,0,0
성남시,성남중앙병원,19811119,경기도 성남시 중원구 산성대로476번길 12 (금광동),경기도 성남시 중원구 금광2동 3956번지,13161,37.45283188,127.1620416,,영업중,,031-743-3000,,종합병원,214270.8837,438973.0937,종합병원,144,50,200,9471.22,411 410 409 408 407 406 405 403 402 125 122 118 116 115 113 111 110 109 106 105 104 102 101,"내과, 신경과, 외과, 정형외과, 신경외과, 마취통증의학과, 산부인과, 소아청소년과, 이비인후과, 비뇨의학과, 영상의학과, 병리과, 가정의학과, 응급의학과, 구강악안면외과, 치과보철과, 소아치과, 치주과, 치과보존과, 구강내과, 영상치의학과, 구강병리과, 예방치과",0,0,0
성남시,성모요양병원,19981119,경기도 성남시 분당구 새나리로 13 (야탑동),"경기도 성남시 분당구 야탑동 49, 51-1",13509,37.4045572,127.1570736,,영업중,,031-707-9100,,요양병원(일반요양병원),213840.81,433625.497,요양병원(일반요양병원),7,19,73,929.94,101 102 106 105 308 104,"내과, 신경과, 외과, 정형외과, 신경외과, 침구과",0,0,0
성남시,성모윌병원,20170809,"경기도 성남시 수정구 성남대로 1171, 2층-9층 (수진동, 삼성화재빌딩)",경기도 성남시 수정구 수진동 4624번지,13313,37.43438755,127.1282096,,영업중,,031-751-2075,,병원,211282.8456,436931.5911,병원,57,29,126,4312.39,122 119 116 111 109 106 105 104 102 101,"내과, 신경과, 외과, 정형외과, 신경외과, 마취통증의학과, 소아청소년과, 영상의학과, 진단검사의학과, 가정의학과",0,0,0
성남시,성신한방병원,20191217,"경기도 성남시 수정구 성남대로 1170, 의남빌딩 7층 일부,8층 (수진동)",경기도 성남시 수정구 수진동 4528번지 의남빌딩,13326,37.4344946,127.1292154,,영업중,,031-722-1175,,한방병원,211371.0727,436944.3612,한방병원,8,14,46,1081.31,308 307 306 305 304 303 302 301,"한방내과, 한방부인과, 한방소아과, 한방안·이비인후·피부과, 한방신경정신과, 한방재활의학과, 사상체질과, 침구과",0,0,0
성남시,송병재한방병원,20160414,"경기도 성남시 분당구 서현로 184, 405호, 406호 (서현동, 엘지분당에클라트)","경기도 성남시 분당구 서현동 251-3번지 엘지분당에클라트 405호, 406호",13590,37.38817046,127.123853,,영업중,,031-718-1075,,한방병원,210878.9101,431830.6906,한방병원,7,5,30,508.46,308 306 305 304 303 302 301 120,"재활의학과, 한방내과, 한방부인과, 한방소아과, 한방안·이비인후·피부과, 한방신경정신과, 한방재활의학과, 침구과",0,0,0
성남시,순천의료재단 정병원,20040303,"경기도 성남시 수정구 수정로 76, 지하3~10층 (수진동)",경기도 성남시 수정구 수진동 2968번지 외3필지(지하3층~10층),13316,37.43985224,127.1290121,,영업중,,031-757-8900,,종합병원,211346.404,437531.33,종합병원,133,68,261,8214.71,125 120 119 116 111 110 109 106 105 104 102 101,"내과, 신경과, 외과, 정형외과, 신경외과, 마취통증의학과, 산부인과, 소아청소년과, 영상의학과, 진단검사의학과, 재활의학과, 응급의학과",0,0,0
성남시,연세스타병원,20200507,"경기도 성남시 수정구 산성대로 267, 5층 일부, 6층 (신흥동)",경기도 성남시 수정구 신흥동 4124번지,13353,37.44132988,127.146459,,영업중,,1670-7088,,병원,212889.7801,437694.3049,병원,15,17,58,2281,120 116 109 106 105 101,"내과, 정형외과, 신경외과, 마취통증의학과, 영상의학과, 재활의학과",0,0,0
성남시,오크힐스분당요양병원,20110719,"경기도 성남시 중원구 도촌로 12, 303호.404~406호.501호 (도촌동)","경기도 성남시 중원구 도촌동 563번지 303,404,405,406,501호",13426,37.41510709,127.150713,,영업중,,031-758-0091,,요양병원(일반요양병원),213275.5637,434797.8254,요양병원(일반요양병원),10,22,99,1093.78,308 306 301 106 105 104,"외과, 정형외과, 신경외과, 한방내과, 한방재활의학과, 침구과",0,0,0
성남시,우리효사랑요양병원,20080716,경기도 성남시 수정구 수정로 271 (신흥동),경기도 성남시 수정구 신흥동 62번지 외 1필지,13259,37.4491086,127.1452084,,영업중,,031-735-7500,,요양병원(일반요양병원),212784.9392,438568.031,요양병원(일반요양병원),34,33,170,2321.12,104 120 101 122 102 105 109,"마취통증의학과, 정형외과, 신경과, 가정의학과, 내과, 재활의학과, 외과",0,0,0
성남시,위례서울닥터스요양병원,20180913,"경기도 성남시 수정구 위례광장로 9-9, 3층 일부, 4층 (창곡동)",경기도 성남시 수정구 창곡동 560번지 1호 위례우남역 퍼스트푸르지오시티,13646,37.46451508,127.1411369,,영업중,,031-759-5005,,요양병원(일반요양병원),,,요양병원(일반요양병원),15,35,199,3497.92,307 122 120 102 101,"내과, 신경과, 재활의학과, 가정의학과, 사상체질과",0,0,0
성남시,위례서울치과병원,20160909,"경기도 성남시 수정구 위례광장로 310, B동 8층 801~804호 (창곡동, 우성트램타워)",경기도 성남시 수정구 창곡동 509번지 2호 우성트램타워 B동 801~4호,13640,37.47266388,127.1426191,,영업중,,031-752-2700,,치과병원,212591,441190,치과병원,3,0,0,417.75,411 410 409 408 407 406 405 404 403 402,"구강악안면외과, 치과보철과, 치과교정과, 소아치과, 치주과, 치과보존과, 구강내과, 영상치의학과, 구강병리과, 예방치과",0,0,0
성남시,위례센트럴요양병원,20190813,"경기도 성남시 수정구 헌릉로 999, 센트럴메디타운 5층-7층,10층 (창곡동)",경기도 성남시 수정구 창곡동 596번지,13644,37.46226841,127.1433639,,영업중,,031-758-7000,,요양병원(일반요양병원),,,요양병원(일반요양병원),15,28,160,3736.71,306 301 122 120 102 101,"내과, 신경과, 재활의학과, 가정의학과, 한방내과, 한방재활의학과",0,0,0
성남시,위례재활병원,20200423,"경기도 성남시 수정구 위례서일로 6, 6층~9층(8층일부) (창곡동)",경기도 성남시 수정구 창곡동 559번지 1호,13647,37.46560119,127.1366988,,영업중,,031-751-0660,,병원,,,병원,9,23,80,2932.21,120 102,"신경과, 재활의학과",0,0,0
성남시,으뜸병원,20120716,"경기도 성남시 중원구 성남대로 1133, 성남 메트로칸 3,4층 (성남동)","경기도 성남시 중원구 성남동 4169번지 성남 메트로칸 3,4층",13376,37.43104466,127.1286373,,영업중,,031-759-1700,,병원,211313.708,436554.7808,병원,10,12,63,1414.73,101 105 106 116,"내과, 정형외과, 신경외과, 영상의학과",0,0,0
성남시,의료법인 본플러스재단 분당병원,20040204,"경기도 성남시 분당구 정자로 13, 801,704호 (정자동, 월드비터)","경기도 성남시 분당구 정자동 155-2번지 월드비터 801,704호",13558,37.36364357,127.1062716,,영업중,,031-714-0141,,병원,209347.5353,429078.5387,병원,12,10,31,1012,105 111 116 119,"정형외과, 소아청소년과, 영상의학과, 진단검사의학과",0,0,0
성남시,재단법인자생의료재단 분당자생한방병원,20110325,"경기도 성남시 분당구 황새울로319번길 13, 1~6층 (서현동)","경기도 성남시 분당구 서현동 274-5번지 , 1~6층",13590,37.38572296,127.1199595,,영업중,,031-789-0711,,한방병원,210550.9166,431521.7149,한방병원,43,13,70,3581.15,101 116 301 302 306 307 308,"내과, 영상의학과, 한방내과, 한방부인과, 한방재활의학과, 사상체질과, 침구과",0,0,0
성남시,좋은이웃요양병원,20091204,경기도 성남시 중원구 도촌로8번길 34 (도촌동),경기도 성남시 중원구 도촌동 576번지,13426,37.41574656,127.1509063,,영업중,,031-705-5757,,요양병원(일반요양병원),213294.6874,434868.0059,요양병원(일반요양병원),32,32,154,3538.1,120 119 116 114 113 111 106 105 104 102 101,"내과, 신경과, 외과, 정형외과, 신경외과, 소아청소년과, 이비인후과, 피부과, 영상의학과, 진단검사의학과, 재활의학과",0,0,0
성남시,지우병원,20160105,경기도 성남시 수정구 수정로 183 (태평동),"경기도 성남시 수정구 태평동 7288번지 16호 지하1,2~5층",13290,37.44372662,127.1401848,,영업중,,031-756-8355,,병원,212335.7836,437960.9637,병원,29,18,60,2256.17,122 116 109 106 105 102 101,"내과, 신경과, 정형외과, 신경외과, 마취통증의학과, 영상의학과, 가정의학과",0,0,0
성남시,차의과학대학교분당차병원,19950324,경기도 성남시 분당구 야탑로 59 (야탑동),"경기도 성남시 분당구 야탑동 351,354-5,354-1,2,3,350번지(일부)",13496,37.41046647,127.1258348,,영업중,,031-780-5000,,종합병원,211018.6955,434244.9445,종합병원,1681,270,889,75248.97,407 406 404 402 308 302 125 123 122 120 119 118 117 116 115 114 113 112 111 110 109 108 107 106 105 104 103 102 101,"내과, 신경과, 정신건강의학과, 외과, 정형외과, 신경외과, 흉부외과, 성형외과, 마취통증의학과, 산부인과, 소아청소년과, 안과, 이비인후과, 피부과, 비뇨의학과, 영상의학과, 방사선종양학과, 병리과, 진단검사의학과, 재활의학과, 가정의학과, 핵의학과, 응급의학과, 한방부인과, 침구과, 구강악안면외과, 치과교정과, 치주과, 치과보존과",0,0,0
성남시,카리스요양병원,20120605,"경기도 성남시 분당구 불정로386번길 8, 1층일부~4층 (서현동)",경기도 성남시 분당구 서현동 306번지 5호 1층(일부)∼4층,13587,37.37401475,127.1374121,,영업중,,709-1234,,요양병원(일반요양병원),212102.9242,430225.1356,요양병원(일반요양병원),21,18,117,2034.38,106 105 120 102 101 122,"내과, 신경과, 정형외과, 신경외과, 재활의학과, 가정의학과",0,0,0
성남시,파티마 요양병원,20150615,경기도 성남시 수정구 산성대로 231 (신흥동),경기도 성남시 수정구 신흥동 4236번지 지하2층~10층,13345,37.43934602,127.1431788,,영업중,,031-721-1004,,요양병원(일반요양병원),212600.4524,437477.4897,요양병원(일반요양병원),22,28,161,2557.76,301 122 115 106 104 101,"내과, 외과, 신경외과, 비뇨의학과, 가정의학과, 한방내과",0,0,0
성남시,형치과병원,19971017,경기도 성남시 분당구 미금로 40 (구미동),경기도 성남시 분당구 구미동 205번지 4호,13626,37.33698208,127.1165714,,영업중,,031-714-5000,,치과병원,210265.6951,426121.8095,치과병원,9,0,0,710.86,401,치과,0,0,0
성남시,휴엔병원,20140508,"경기도 성남시 수정구 산성대로 241, 9,10,11,12층 (신흥동)","경기도 성남시 수정구 신흥동 4224번지 9,10,11,12층",13344,37.44021777,127.1435644,,영업중,,031-753-1000,,병원,212681.4769,437541.5049,병원,12,23,214,2481.88,101 102 103 111,"내과, 신경과, 정신건강의학과, 소아청소년과",0,0,0
수원시,가톨릭대학교 성빈센트병원,19670523,경기도 수원시 팔달구 중부대로 93 (지동),경기도 수원시 팔달구 지동 93번지 6호,16247,37.27789943,127.0274529,,영업중,,031-1577-8588,,종합병원,202374.9793,419557.794,종합병원,1367,261,888,71540.79,407 404 403 402 125 123 122 120 119 118 117 116 115 114 113 112 111 110 109 108 107 106 105 104 103 102 101,"내과, 신경과, 정신건강의학과, 외과, 정형외과, 신경외과, 흉부외과, 성형외과, 마취통증의학과, 산부인과, 소아청소년과, 안과, 이비인후과, 피부과, 비뇨의학과, 영상의학과, 방사선종양학과, 병리과, 진단검사의학과, 재활의학과, 가정의학과, 핵의학과, 응급의학과, 구강악안면외과, 치과보철과, 치과교정과, 치과보존과",0,0,0
수원시,강남여성병원,19950713,경기도 수원시 팔달구 중부대로 96 (인계동),경기도 수원시 팔달구 인계동 210-1번지,16471,37.27673768,127.0275073,,영업중,,031-222-7575,,병원,202356,419428,병원,19,14,30,3197.4,122 114 110 109 108 104 101,"내과, 외과, 성형외과, 마취통증의학과, 산부인과, 피부과, 가정의학과",0,0,0
